"nom_methode_dpe","version_methode_dpe","date_etablissement_dpe","consommation_energie","classe_consommation_energie","estimation_ges","classe_estimation_ges","annee_construction","surface_thermique_lot","latitude","longitude","result_label","result_score","tr001_modele_dpe_type_libelle","tr002_type_batiment_description"
"3CL","3CL-DPE, version 1.3","2013-04-12",132,"C",29,"D",5200,190,46.134409000000005,5.55394,"3 Impasse du Tilleul 01430 Saint-Martin-du-Frêne",0.94,"Vente","Maison Individuelle"
"Méthode Facture",,"2013-04-20",0,"N",0,"N",1947,42,43.320718,6.287329,"7 Rue de la Treille 83590 Gonfaron",0.95,"Vente","Maison Individuelle"
"Méthode 3CL","3CL-DPE, version 1.3","2013-04-16",326,"E",18,"C",2006,107,46.661390999999995,2.686369,"7 Route du Bois Jaubin 03360 Saint-Bonnet-Tronçais",0.68,"Vente","Maison Individuelle"
"Méthode 3CL","3CL-DPE, version 1.3","2013-05-06",326,"E",14,"C",1948,90,43.950393,6.8112770000000005,"Rue Serpente 04320 Entrevaux",0.94,"Vente","Logement"
"Méthode 3CL","3CL-DPE, version 1.3","2013-04-27",221,"D",3,"A",2006,78.2,44.801994,6.583455000000001,"Sainte Marguerite 05120 Saint-Martin-de-Queyrières",0.64,"Location","Logement"
"Facture","facture","2013-02-13",0,"N",0,"N",1948,54.31,43.546228,7.0404279999999995,"44 Boulevard Alexandre III 06400 Cannes",0.96,"Vente","Logement"
"Méthode 3CL","3CL-DPE, version 1.3","2013-04-10",174,"D",52,"E",2001,87.56,45.095755,4.786621,"Chemin du Moulin 07610 Lemps",0.5,"Vente","Maison Individuelle"
"Méthode Facture",,"2013-05-02",351,"F",82,"G",1947,122.32,49.763009999999994,4.707744,"10 Rue Léon Blum 08000 Charleville-Mézières",0.65,"Vente","Logement"
"Méthode Facture",,"2013-05-06",8,"A",0,"A",1947,102,42.945868,1.5636079999999999,"Chemin de Micou 09000 Ganac",0.7,"Vente","Maison Individuelle"
"3CL - DPE","V2012","2013-05-02",249.12,"E",13.26,"C",2006,91,48.14083,4.211108,"16 bis Route de Nicey 10260 Rumilly-lès-Vaudes",0.81,"Location","Maison Individuelle"
"Méthode 3CL","3CL-DPE, version 1.3","2013-04-15",195,"D",9,"B",1989,35,43.114703000000006,3.107654,"Résidence Bora Bora 11430 Gruissan",0.77,"Vente","Maison Individuelle"
"TROIS_CL_DPE","VERSION_2012","2013-05-08",287.13,"E",86.14,"G",1974,202.6,44.683193,2.843667,"19 Rue Marcellin Cazes 12210 Laguiole",0.76,"Vente","Maison Individuelle"
"3CL","3CL-DPE, version 1.3","2013-04-08",206,"D",10,"B",2006,84,43.331016999999996,5.432009,"32 Avenue de la Croix Rouge 13013 Marseille",0.66,"Vente","Logement"
"3CL","3CL-DPE, version 1.3","2013-04-13",322,"E",17,"C",1983,80,49.329046999999996,-0.448143,"4 Rue des Aubepines 14470 Courseulles-sur-Mer",0.95,"Vente","Maison Individuelle"
"TROIS_CL_DPE","VERSION_2012","2013-05-09",358.04,"F",20.31,"C",1975,172.5,45.257503,3.200014,"8 Rue de l'Egalité 15500 Massiac",0.65,"Vente","Maison Individuelle"
"FACTURE - DPE","V2012","2013-04-09",29.54,"A",6.91,"B",2006,87.5,45.63127,0.166008,"Hameau des Rossignols 16000 Angoulême",0.76,"Neuf","Maison Individuelle"
"FACTURE","VERSION_2012","2013-04-05",64.42,"B",0.99,"A",1940,109.5,45.666506,-0.618811,"16 Route de la Poitevinière 17460 Préguillac",0.59,"Vente","Maison Individuelle"
"3CL - DPE","V2012","2013-04-23",219.47,"D",52.89,"E",1900,108.7,47.339605,2.843327,"Rue des Obuses 18300 Saint-Satur",0.51,"Vente","Maison Individuelle"
"Méthode 3CL","3CL-DPE, version 1.3","2013-05-10",212,"D",10,"B",1983,42.25,45.154168,1.5354889999999999,"18 Rue Jean Fieyre 19100 Brive-la-Gaillarde",0.96,"Vente","Logement"
"3CL","3CL-DPE, version 1.3","2013-04-09",213,"D",10,"B",2006,42,47.329418,5.041893,"9 Rue Charles de Vergennes 21000 Dijon",0.96,"Location","Logement"
"FACTURE","VERSION_2012","2013-04-25",282.41,"E",239.06,"G",1900,114.75,48.668678,-3.3587190000000002,"Kerscane 22140 Cavan",0.47,"Vente","Maison Individuelle"
"3CL","3CL-DPE, version 1.3","2013-04-09",281,"E",65,"F",1978,121.2,46.180639,2.4860860000000002,"15 Rue des Thermes 23110 Évaux-les-Bains",0.85,"Vente","Maison Individuelle"
"3CL - DPE","V2012","2013-05-02",189.34,"D",44.69,"E",2000,95,45.382138,0.259403,"Le Moulin du Treuil 24320 Nanteuil-Auriac-de-Bourzac",0.78,"Vente","Maison Individuelle"
"3CL","3CL-DPE, version 1.3","2013-04-11",296,"E",20,"C",1989,22.63,47.511061,6.79948,"Rue de la Souaberie 25200 Montbéliard",0.66,"Vente","Logement"
"Facture","facture","2013-04-12",0,"N",0,"N",1948,180,44.485683,4.715507,"Route de Viviers 26780 Châteauneuf-du-Rhône",0.56,"Vente","Maison Individuelle"
"Méthode 3CL","3CL-DPE, version 1.3","2013-04-18",298,"E",11,"C",1983,105,49.31046,0.34579499999999996,"65 Chemin de la Campagne 27210 La Lande-Saint-Léger",0.77,"Vente","Maison Individuelle"
"Méthode Facture",,"2013-04-12",0,"N",0,"N",1947,75,48.435848,1.711813,"9 Grande Rue 28700 Béville-le-Comte",0.94,"Location","Maison Individuelle"
"3CL - DPE","V2012","2013-04-17",259.91,"E",12.68,"C",1999,64.2,47.8954,-4.025116000000001,"12 Residence de la Chataigneraie 29170 Pleuven",0.63,"Vente","Maison Individuelle"
"Méthode 3CL","3CL-DPE, version 1.3","2013-04-24",126,"C",5,"A",1983,65,41.598884000000005,9.268513,"Hameau Turriccioli II 20137 Porto-Vecchio",0.69,"Vente","Maison Individuelle"
"Méthode 3CL","3CL-DPE, version 1.3","2013-04-03",152,"D",9,"B",1989,130,42.310014,9.14804,"Residence Badello 20250 Corte",0.52,"Vente","Maison Individuelle"
"Méthode Facture",,"2013-04-11",38,"B",1,"A",1947,60.83,43.836686,4.364898999999999,"14 Rue Notre Dame 30000 Nîmes",0.96,"Vente","Bâtiments ou partie de bâtiment à usage principal autre que d'habitation"
"3CL","3CL-DPE, version 1.3","2013-04-08",177,"D",9,"B",2001,70.66,43.624778000000006,1.424567,"6 Rue James Pradier 31200 Toulouse",0.59,"Vente","Logement"
"Méthode 3CL","3CL-DPE, version 1.3","2013-04-16",155,"D",9,"B",2001,105,43.714311,-0.053347000000000006,"Saint-Martin-d'Armagnac",0.67,"Vente","Maison Individuelle"
"3CL","3CL-DPE, version 1.3","2013-04-09",276,"E",15,"C",1948,77.14,44.680851000000004,-0.527678,"19 Place Montesquieu 33650 La Brède",0.95,"Location","Logement"
"3CL - DPE","V2012","2013-04-04",253.77,"E",14.32,"C",1984,124,43.656307,3.9713339999999997,"12 bis Rue du Peyrou 34740 Vendargues",0.8,"Vente","Maison Individuelle"
"3CL","3CL-DPE, version 1.3","2013-04-10",112,"C",20,"C",2001,115,48.063917,-1.525618,"7 Rue de la Perche 35410 Domloup",0.94,"Location","Maison Individuelle"
"Méthode Facture",,"2013-04-17",101,"C",3,"A",1947,118,46.584462,1.9896509999999998,"8 Rue Venose 36400 La Châtre",0.95,"Vente","Maison Individuelle"
"3CL - DPE","V2012","2013-04-03",265.27,"E",62.07,"F",1900,70,47.326966,0.40798,"33 Place Léon Boyer 37130 Langeais",0.78,"Vente","Maison Individuelle"
"3CL","3CL-DPE, version 1.3","2013-04-05",293,"E",15,"C",2006,91,45.50207,4.9671449999999995,"38 Montee des Dauphinois 38780 Eyzin-Pinet",0.94,"Vente","Maison Individuelle"
"3CL - DPE","V2012","2013-05-04",318.28,"E",17.88,"C",1977,90,47.149928,5.549608,"1 Chemin des Sablonnières 39700 Châtenois",0.58,"Vente","Maison Individuelle"
"Méthode 3CL","3CL-DPE, version 1.3","2013-04-16",140,"C",4,"A",2001,164,43.927889,-0.635899,"16 Rue Menjoulic 40090 Saint-Martin-d'Oney",0.73,"Vente","Maison Individuelle"
"3CL - DPE","V2012","2013-04-09",327.95,"E",19.18,"C",1975,107.6,47.499183,1.1666969999999999,"4 Rue des Champs Marquiers 41150 Veuzain-sur-Loire",0.69,"Vente","Maison Individuelle"
"3CL","3CL-DPE, version 1.3","2013-04-05",97,"C",4,"A",1984,125,45.473081,4.7206269999999995,"222 Allee de la Minarie 42410 La Chapelle-Villars",0.94,"Vente","Maison Individuelle"
"3CL - DPE","V2012","2013-04-03",0,"N",0,"N",1947,71,45.030194,3.3883410000000005,"Piece Basse 43300 Pinols",0.3,"Vente","Logement"
"3CL - DPE","V2012","2013-04-10",80.45,"B",18.03,"C",2012,75.3,47.198716,-1.5912309999999998,"3 Chemin Poisson 44100 Nantes",0.84,"Location","Logement"
"TROIS_CL_DPE","VERSION_2012","2013-04-09",140.94,"C",32.98,"D",2010,112.77,47.927240000000005,1.908997,"10 a Rue Fernand Rabier 45400 Fleury-les-Aubrais",0.78,"Location","Maison Individuelle"
"3CL - DPE","V2012","2013-05-06",197.53,"D",7.94,"B",1982,53.5,48.340907,-0.28356,"Parc d'Activites de la Boorie 53700 Villaines-la-Juhel",0.36,"Vente","Logement"
"3CL - DPE","V2012","2013-04-16",260.64,"E",60.99,"F",1960,82,44.191956,0.623322,"306 Rue Ferdinand David 47000 Agen",0.73,"Location","Maison Individuelle"
"Méthode 3CL","3CL-DPE, version 1.3","2013-05-04",336,"F",18,"C",1978,120,44.811151,3.279275,"14 Rue des Crêtes 48200 Saint-Chély-d'Apcher",0.84,"Location","Maison Individuelle"
"Méthode 3CL","3CL-DPE, version 1.3","2013-04-17",306,"E",61,"F",1948,128,47.2384,-0.106103,"Route de Doué 49400 Saumur",0.46,"Vente","Maison Individuelle"
"3CL","3CL-DPE, version 1.3","2013-04-11",212,"D",63,"F",1948,124,49.595490999999996,-1.717618,"Le Manoir 50690 Teurthéville-Hague",0.84,"Vente","Maison Individuelle"
"TROIS_CL_DPE","VERSION_2012","2013-04-16",423.08,"F",25.89,"D",1975,110,48.784178000000004,3.481939,"11 Rue de Doussigny 51210 Tréfols",0.59,"Vente","Maison Individuelle"
"Méthode Facture",,"2013-04-24",125,"C",29,"D",1947,104,48.528893,5.129705,"28 Grande Rue (Chevillon) 52170 Chevillon",0.88,"Vente","Maison Individuelle"
"Méthode 3CL","3CL-DPE, version 1.3","2013-04-15",150,"C",22,"D",1990,110.05,48.096748,-0.797164,"4 Rue des Passereaux 53810 Changé",0.79,"Vente","Maison Individuelle"
"3CL","3CL-DPE, version 1.3","2013-04-06",282,"E",69,"F",1948,118,48.486067,6.872836,"64 Rue Georges de Willermont 54540 Pexonne",0.76,"Vente","Maison Individuelle"
"Méthode 3CL","3CL-DPE, version 1.3","2013-04-10",181,"D",42,"E",1948,93,48.756098,5.153487999999999,"13 Rue Henri Thetard 55000 Bar-le-Duc",0.95,"Vente","Maison Individuelle"
"3CL - DPE","V2012","2013-04-01",383.89,"F",93.15,"G",1970,89,48.064588,-2.882664,"35 Rue Kroez Person 56920 Noyal-Pontivy",0.74,"Vente","Maison Individuelle"
"TROIS_CL_DPE","VERSION_2012","2013-04-11",149.59,"C",6.7,"B",2008,131,49.171062,6.492605,"Boulay-Moselle",0.37,"Vente","Maison Individuelle"
"3CL - DPE","V2012","2013-04-30",273.05,"E",52.26,"E",1940,85.12,47.180913000000004,3.028832,"57 bis Avenue Gambetta 58400 La Charité-sur-Loire",0.69,"Location","Maison Individuelle"
"TROIS_CL_DPE","VERSION_2012","2013-04-12",257.96,"E",10.81,"B",2012,39.75,50.623453999999995,3.069785,"33 Rue de Douai 59000 Lille",0.69,"Location","Logement"
"Méthode 3CL","3CL-DPE, version 1.3","2013-04-12",395,"F",92,"G",1948,90,49.400735,2.810336,"4 Rue Jean Lhuillier 60200 Compiègne",0.96,"Vente","Maison Individuelle"
"Méthode 3CL","3CL-DPE, version 1.3","2013-04-15",293,"E",56,"F",1948,110,48.64996,-0.457135,"La Penliere 61220 La Coulonche",0.94,"Vente","Maison Individuelle"
"3CL - DPE","V2012","2013-04-08",145.82,"C",27.45,"D",1976,88.48,50.585671000000005,2.670818,"555 Rue des Lobes 62136 La Couture",0.78,"Vente","Maison Individuelle"
"Facture","facture","2013-04-12",0,"N",0,"N",1948,135,46.023426,3.297718,"4 Route de la Limagne 63310 Bas-et-Lezat",0.8,"Vente","Maison Individuelle"
"3CL - DPE","V2012","2013-04-10",329.01,"E",76.99,"F",1965,84.75,43.323141,-0.3574,"Rue de Lacq 64000 Pau",0.63,"Vente","Maison Individuelle"
"3CL - DPE","V2012","2013-04-11",143.68,"C",4.01,"A",1930,171,43.204097999999995,0.12393299999999999,"Avenue de Toulouse 65690 Barbazan-Debat",0.66,"Vente","Maison Individuelle"
"3CL - DPE","V2012","2013-04-04",494.04,"G",29.29,"D",1972,51,42.547621,2.382193,"11 Promenade Claude Nogue 66820 Vernet-les-Bains",0.65,"Vente","Logement"
"3CL - DPE","V2012","2013-04-13",147.87,"C",23.21,"D",1963,188,48.93228,8.150514,"35 Rue de la Mairie 67470 Mothern",0.79,"Vente","Maison Individuelle"
"3CL - DPE","V2012","2013-04-13",363.57,"F",11.84,"C",1940,82.9,48.262865999999995,7.226121000000001,"60 Rue Maurice Burrus 68160 Sainte-Croix-aux-Mines",0.83,"Vente","Maison Individuelle"
"3CL - DPE","V2012","2013-04-10",416.56,"F",21.73,"D",1980,100.71,45.763952,4.966761,"28 Rue de Verdun 69150 Décines-Charpieu",0.81,"Vente","Maison Individuelle"
"Méthode Facture",,"2013-04-20",196,"D",44,"E",1947,124.01,47.569727,6.768713000000001,"84 Avenue Jean Jaurés 70400 Héricourt",0.78,"Location","Maison Individuelle"
"Méthode Facture",,"2013-04-16",269,"E",63,"F",1947,59.52,46.444931,4.111468,"1 Rue Hubert Giraud 71600 Paray-le-Monial",0.95,"Vente","Logement"
"3CL - DPE","V2012","2013-04-06",205.59,"D",48.11,"E",1963,85,47.999064000000004,0.232017,"13 Impasse Douce Amie 72000 Le Mans",0.8,"Vente","Maison Individuelle"
"Méthode 3CL","3CL-DPE, version 1.3","2013-04-29",231,"E",69,"F",1989,120,45.443159,6.647149000000001,"Pas de la Tour 73350 Bozel",0.46,"Vente","Maison Individuelle"
"3CL","3CL-DPE, version 1.3","2013-04-10",197,"D",10,"B",1993,64.85,46.355284999999995,6.426296,"1 R du Mollard 74200 Anthy-sur-Léman",0.49,"Vente","Logement"
"Méthode Facture",,"2013-04-11",249,"E",15,"C",1947,54,48.828072999999996,2.345544,"32 Rue Vergniaud 75013 Paris",0.96,"Vente","Logement"
"3CL - DPE","V2012","2013-04-08",243.74,"E",57.04,"F",1980,31.74,49.763574,0.36952399999999996,"108 Quai Guy de Maupassant 76400 Fécamp",0.74,"Vente","Logement"
"3CL","3CL-DPE, version 1.3","2013-04-09",203,"D",47,"E",1975,150,48.796718,2.702676,"24 Rue de l'Etrier 77135 Pontcarré",0.94,"Vente","Maison Individuelle"
"FACTURE","VERSION_2012","2013-04-12",261.42,"E",0,"A",1970,8.75,48.81497,2.137595,"9 Rue Mansart 78000 Versailles",0.77,"Vente","Logement"
"3CL","3CL-DPE, version 1.3","2013-04-03",326,"E",18,"C",1983,69.84,46.352422,-0.11098,"41 Rue de la Barrière 79800 La Mothe-Saint-Héray",0.94,"Vente","Maison Individuelle"
"3CL","3CL-DPE, version 1.3","2013-04-08",200,"D",6,"B",2001,99,49.914184999999996,2.546118,"4 bis Rue du Hamel 80800 Vaire-sous-Corbie",0.93,"Vente","Maison Individuelle"
"Méthode 3CL","3CL-DPE, version 1.3","2013-04-30",333,"F",100,"G",1948,144.6,43.602989,2.227117,"80 Chemin du Corporal 81100 Castres",0.81,"Vente","Maison Individuelle"
"3CL - DPE","V2012","2013-04-12",280.67,"E",13.56,"C",2008,85,43.881069000000004,1.251125,"192 Rue Jules Ferry 82170 Bessens",0.78,"Vente","Maison Individuelle"
"3CL - DPE","V2012","2013-04-09",228.7,"D",9.19,"B",1985,24.89,43.134514,6.2356419999999995,"Place Victor Hugo 83250 La Londe-les-Maures",0.82,"Vente","Logement"
"TROIS_CL_DPE","VERSION_2012","2013-04-15",118.16,"C",25.02,"D",1970,150,44.09264,4.914645,"236 Chemin des Sarrassanes 3 84350 Courthézon",0.78,"Vente","Maison Individuelle"
"3CL - DPE","V2012","2013-04-03",0,"N",0,"N",1980,93.64,47.023082,-2.292857,"4 Residence Janvier 85330 Noirmoutier-en-l'Île",0.82,"Vente","Maison Individuelle"
"3CL","3CL-DPE, version 1.3","2013-04-09",194,"D",9,"B",2006,111.03,46.604764,0.304721,"22 Allée Jacquard 86580 Vouneuil-sous-Biard",0.95,"Vente","Maison Individuelle"
"FACTURE - DPE","V2012","2013-04-09",131.56,"C",22.29,"D",2006,101,45.510319,1.3153,"9 Rue de l'Oradour 87500 Coussac-Bonneval",0.75,"Neuf","Maison Individuelle"
"Méthode 3CL","3CL-DPE, version 1.3","2013-04-10",221,"D",10,"B",1989,112,48.377496,6.994594,"7 Rue Derriere la Ville 88210 Ménil-de-Senones",0.93,"Vente","Maison Individuelle"
"Méthode 3CL","3CL-DPE, version 1.3","2013-04-29",328,"E",15,"C",1981,90,48.080059999999996,3.267709,"La Haute Epine 89500 Villeneuve-sur-Yonne",0.7,"Vente","Maison Individuelle"
"3CL - DPE","V2012","2013-04-12",374.33,"F",87.59,"G",1950,61.5,47.64196,6.852431,"24 Boulevard Jean-marie de Lattre de Tassigny 90000 Belfort",0.73,"Vente","Logement"
"3CL","3CL-DPE, version 1.3","2013-04-08",146,"C",34,"D",1989,123.4,48.528653000000006,2.29487,"28 Rue François Mitterrand 91510 Lardy",0.92,"Vente","Maison Individuelle"
"TROIS_CL_DPE","VERSION_2012","2013-04-08",242.02,"E",11.68,"C",1980,64.05,48.892677,2.248853,"25 Rue d''Essling 92400 Courbevoie",0.79,"Location","Logement"
"Méthode Facture",,"2013-04-12",153,"D",35,"D",1,84,48.943090000000005,2.550303,"13 Allée Jean Paulhan 93270 Sevran",0.96,"Vente","Logement"
"Méthode 3CL","3CL-DPE, version 1.3","2013-04-11",233,"E",22,"D",2006,39,47.372479999999996,4.361428,"Rue du Moulin à Vent 21390 Nan-sous-Thil",0.2,"Location","Logement"
"Méthode Facture",,"2013-04-11",323,"E",75,"F",1947,90,49.103076,2.541439,"3 Square de la Chapelle 95470 Survilliers",0.95,"Vente","Logement"
"Méthode Facture",,"2013-04-15",286,"E",9,"B",1,106.87,46.086627,5.407756,"11 Avenue du Château 01450 Poncin",0.94,"Vente","Maison Individuelle"
"3CL - DPE","V2012","2013-04-17",200.38,"D",41.81,"E",1947,136,49.689062,3.2177439999999997,"11 Rue du Bois l'Abbé 02700 Frières-Faillouël",0.81,"Vente","Maison Individuelle"
"Méthode Facture",,"2013-04-21",158,"D",37,"E",1947,137,46.102649,3.196202,"4 Rue Croix des Rameaux 03800 Gannat",0.85,"Vente","Maison Individuelle"
"Méthode 3CL","3CL-DPE, version 1.3","2013-05-08",48,"A",0,"A",2011,103,43.842264,5.988045,"16 Chemin des Grandes Aires 04210 Valensole",0.94,"Location","Maison Individuelle"
"Méthode 3CL","3CL-DPE, version 1.3","2013-04-07",365,"F",23,"D",1948,205,44.562385,6.475054,"Le Petit Puy 05200 Embrun",0.61,"Vente","Maison Individuelle"
"3CL","3CL-DPE, version 1.3","2013-04-08",71,"B",16,"C",1989,78,43.660443,7.170142,"123 Avenue de Nice 06800 Cagnes-sur-Mer",0.66,"Vente","Logement"
"Méthode 3CL","3CL-DPE, version 1.3","2013-04-12",343,"F",18,"C",1960,69.56,44.943774,4.862372,"Terres Longues 07130 Saint-Péray",0.68,"Vente","Logement"
"Méthode Facture",,"2013-04-30",0,"N",0,"N",1947,67.83,49.763009999999994,4.707744,"10 Rue Léon Blum 08000 Charleville-Mézières",0.63,"Vente","Logement"
"Méthode Facture",,"2013-05-06",179,"D",42,"E",1947,274.6,43.089749,1.876167,"17 Avenue Victor Hugo 09500 Mirepoix",0.94,"Vente","Maison Individuelle"
"3CL - DPE","V2012","2013-05-02",292.71,"E",87.81,"G",1974,152,48.058214,4.13875,"1 Rue des Cannes 10210 Chaource",0.77,"Vente","Maison Individuelle"
"Méthode 3CL","3CL-DPE, version 1.3","2013-04-15",145,"C",6,"B",1978,35,43.106590999999995,3.097143,"Résidence le Méditerranée 11430 Gruissan",0.65,"Vente","Logement"
"Méthode 3CL","3CL-DPE, version 1.3","2013-05-10",654,"G",8,"B",1948,18,44.315315999999996,2.73285,"Le Vibal",0.54,"Vente","Maison Individuelle"
"Méthode 3CL","3CL-DPE, version 1.3","2013-04-08",107,"C",32,"D",1989,136,43.665965,5.435625,"Clos Saint Antoine 13610 Le Puy-Sainte-Réparade",0.82,"Vente","Maison Individuelle"
"3CL","3CL-DPE, version 1.3","2013-04-13",169,"D",39,"E",1989,98,49.151742999999996,-0.46764300000000003,"9 Rue Exupere Louis Dubosq 14790 Verson",0.94,"Vente","Maison Individuelle"
"Méthode Facture",,"2013-05-21",0,"N",0,"N",1947,82,45.033301,2.409145,"Puech Marzes 15310 Saint-Cernin",0.51,"Vente","Maison Individuelle"
"FACTURE - DPE","V2012","2013-04-09",28.32,"A",6.63,"B",2006,87.5,45.63127,0.166008,"Hameau des Rossignols 16000 Angoulême",0.76,"Neuf","Maison Individuelle"
"FACTURE","VERSION_2012","2013-04-05",64.42,"B",0.99,"A",1940,109.5,45.666506,-0.618811,"16 Route de la Poitevinière 17460 Préguillac",0.59,"Vente","Maison Individuelle"
"3CL - DPE","V2012","2013-04-24",282.94,"E",15.38,"C",2003,95,47.325731,2.835137,"Clos des Roches 18300 Sancerre",0.71,"Vente","Maison Individuelle"
"Méthode 3CL","3CL-DPE, version 1.3","2013-05-15",158,"D",37,"E",2000,47,45.165894,1.532835,"Rue Gutenberg 19100 Brive-la-Gaillarde",0.5,"Vente","Logement"
"Méthode 3CL","3CL-DPE, version 1.3","2013-04-22",219,"D",7,"B",2012,110,47.52706,5.137058000000001,"18 Rue du Puits Perdu 21120 Marcilly-sur-Tille",0.88,"Vente","Maison Individuelle"
"TROIS_CL_DPE","VERSION_2012","2013-04-29",276.18,"E",35.73,"D",1975,133,,,,,"Vente","Maison Individuelle"
"Méthode Facture",,"2013-04-17",154,"D",33,"D",1947,163,46.242059000000005,1.483026,"14 Rue Fernand Villard 23300 La Souterraine",0.95,"Vente","Maison Individuelle"
"FACTURE - DPE","V2012","2013-05-02",58.71,"N",1.91,"N",1948,140,45.50655,0.472492,"Bretanges 24340 Mareuil en Périgord",0.35,"Vente","Maison Individuelle"
"Méthode Facture",,"2013-04-24",246,"E",8,"B",1947,42,47.508627000000004,6.795017999999999,"8 Quai des Tanneurs 25200 Montbéliard",0.95,"Vente","Logement"
"Méthode 3CL","3CL-DPE, version 1.3","2013-04-17",225,"D",52,"E",1948,80,44.558752,4.755778,"2 bis Avenue de Villeneuve 26200 Montélimar",0.96,"Vente","Logement"
"TROIS_CL_DPE","VERSION_2012","2013-04-19",425.86,"F",102.09,"G",1967,68.2,49.024246999999995,1.264728,"23 Rue du Stade 27930 Miserey",0.74,"Vente","Maison Individuelle"
"TROIS_CL_DPE","VERSION_2012","2013-04-12",324.38,"E",18.48,"C",1973,84,48.335370000000005,1.5289760000000001,"Rue de Theuville 28360 Dammarie",0.42,"Vente","Maison Individuelle"
"Méthode 3CL","3CL-DPE, version 1.3","2013-04-22",96,"C",4,"A",2009,121.8,48.509293,-4.541076,"13 Rue de la Fontaine 29870 Coat-Méal",0.94,"Vente","Maison Individuelle"
"Méthode 3CL","3CL-DPE, version 1.3","2013-05-06",191,"D",8,"B",1968,61.05,41.913365999999996,8.724848,"3 Rue de Marengo 20000 Ajaccio",0.86,"Vente","Logement"
"Méthode 3CL","3CL-DPE, version 1.3","2013-04-15",271,"E",16,"C",2001,160,42.486882,9.123138,"Pianotolu 20218 Moltifao",0.61,"Vente","Maison Individuelle"
"Méthode Facture",,"2013-04-15",0,"N",0,"N",1947,87.5,44.288441,4.1017529999999995,"12 Rue Docteur Paul Vermale 30160 Bessèges",0.88,"Vente","Logement"
"3CL","3CL-DPE, version 1.3","2013-04-09",221,"D",11,"C",2001,49.41,43.60443,1.364101,"10 Rue de Nego Saoumos 31300 Toulouse",0.89,"Vente","Logement"
"TROIS_CL_DPE","VERSION_2012","2013-04-19",208.37,"D",10.65,"B",1985,100,41.919987,8.729442,"Residence les Aloes Batiment E 20000 Ajaccio",0.52,"Vente","Maison Individuelle"
"3CL","3CL-DPE, version 1.3","2013-04-09",293,"E",16,"C",1948,45.22,44.680851000000004,-0.527678,"19 Place Montesquieu 33650 La Brède",0.95,"Location","Logement"
"3CL - DPE","V2012","2013-04-10",144.13,"C",4.44,"A",1996,67,43.655901,4.0042800000000005,"1 Rue du Colombier 34670 Baillargues",0.64,"Vente","Maison Individuelle"
"3CL","3CL-DPE, version 1.3","2013-04-11",276,"E",35,"D",1948,105.07,48.105185999999996,-1.6515819999999999,"14 Rue Louis Coquillet 35000 Rennes",0.96,"Vente","Maison Individuelle"
"Méthode Facture",,"2013-04-15",192,"D",6,"B",1947,91,46.534244,1.939628,"Chassignolles",0.63,"Vente","Maison Individuelle"
"3CL","3CL-DPE, version 1.3","2013-04-11",147,"C",34,"D",1989,200,47.401843,0.957225,"353 Chemin de la Fuye 37400 Amboise",0.69,"Vente","Maison Individuelle"
"Méthode Facture",,"2013-04-05",211,"D",33,"D",1947,97.5,45.543105,4.865842,"18 Montee Bon Accueil 38200 Vienne",0.59,"Location","Logement"
"3CL - DPE","V2012","2013-05-04",306.73,"E",71.78,"F",1949,83.42,46.729853000000006,5.497603,"145 Bard 39140 Ruffey-sur-Seille",0.76,"Vente","Maison Individuelle"
"Méthode 3CL","3CL-DPE, version 1.3","2013-04-12",132,"C",6,"B",1983,175,43.532515000000004,-1.312325,"2532 Route de Saint-barthelemy 40390 Biaudos",0.83,"Vente","Maison Individuelle"
"3CL - DPE","V2012","2013-04-15",159.22,"D",37.26,"E",1983,112,47.503108000000005,1.1790049999999999,"1 Rue du Docteur Jean Girault 41150 Veuzain-sur-Loire",0.47,"Vente","Maison Individuelle"
"3CL","3CL-DPE, version 1.3","2013-04-10",468,"G",111,"G",1948,64.23,46.057623,4.069794,"34 Rue Jean Bailly 42300 Mably",0.95,"Vente","Maison Individuelle"
"3CL - DPE","V2012","2013-04-03",0,"N",0,"N",1947,32,45.030194,3.3883410000000005,"Piece Basse 43300 Pinols",0.3,"Vente","Logement"
"3CL","3CL-DPE, version 1.3","2013-04-09",204,"D",8,"B",2001,42.03,47.25931,-2.23139,"Rue des Chardonnerets 44600 Saint-Nazaire",0.52,"Vente","Logement"
"TROIS_CL_DPE","VERSION_2012","2013-04-11",282.4,"E",16.24,"C",1980,67.16,47.898634,1.8979080000000002,"2 bis Rue Stanislas Julien 45000 Orléans",0.82,"Location","Logement"
"3CL - DPE","V2012","2013-05-06",268.74,"E",62.89,"F",1974,117,44.611337,2.045957,"56 Rue du Rubis 46100 Figeac",0.82,"Vente","Maison Individuelle"
"FACTURE - DPE","V2012","2013-04-26",140.75,"N",4.58,"N",1948,47,44.205496000000004,0.6290979999999999,"24 Avenue Henri-barbusse 47000 Agen",0.85,"Vente","Logement"
"Méthode 3CL","3CL-DPE, version 1.3","2013-05-07",657,"G",41,"E",1975,32,44.519271,3.493082,"Rue de la Petite Roubeyrolle 48000 Mende",0.53,"Vente","Logement"
"Méthode 3CL","3CL-DPE, version 1.3","2013-04-18",220,"D",11,"C",1948,104.5,47.294733,0.028720999999999997,"42 Rue du Bois Clairay 49650 Allonnes",0.94,"Location","Maison Individuelle"
"3CL","3CL-DPE, version 1.3","2013-04-11",212,"D",63,"F",1948,124,49.595490999999996,-1.717618,"Le Manoir 50690 Teurthéville-Hague",0.84,"Vente","Maison Individuelle"
"3CL - DPE","V2012","2013-04-18",301.95,"E",15.35,"C",1996,55,49.245055,4.048525,"91 bis Boulevard Henry Vasnier 51100 Reims",0.83,"Vente","Logement"
"Méthode Facture",,"2013-04-30",570,"G",63,"E",1947,354.2,48.642989,4.946567,"Place du Marechal Leclerc 52100 Saint-Dizier",0.95,"Vente","Bâtiments ou partie de bâtiment à usage principal autre que d'habitation"
"Méthode 3CL","3CL-DPE, version 1.3","2013-04-17",219,"D",51,"E",1948,105,48.05785,-0.764832,"10 Rue Jules Simon 53000 Laval",0.96,"Vente","Maison Individuelle"
"Méthode Facture",,"2013-04-15",227,"D",53,"E",1947,52,48.681613,6.16723,"58 Rue Pasteur 54000 Nancy",0.96,"Vente","Logement"
"Méthode 3CL","3CL-DPE, version 1.3","2013-04-24",363,"F",85,"G",1948,114,48.779882,5.173857,"26 Allée de Bretagne 55000 Bar-le-Duc",0.95,"Vente","Maison Individuelle"
"3CL - DPE","V2012","2013-04-10",228.21,"D",35.76,"D",1947,197,48.037641,-3.338425,"Liscuich 56540 Saint-Caradec-Trégomel",0.78,"Vente","Maison Individuelle"
"TROIS_CL_DPE","VERSION_2012","2013-04-11",454.77,"G",88.51,"G",1960,217,49.0989,6.714622,"8 Rue des Vergers 57500 Saint-Avold",0.79,"Vente","Maison Individuelle"
"3CL - DPE","V2012","2013-05-03",212,"D",11,"C",2005,91,49.426404999999995,3.361151,"Le Chateau 02880 Clamecy",0.29,"Vente","Maison Individuelle"
"Méthode Facture",,"2013-04-16",172,"D",5,"A",1947,94,50.758093,3.002539,"13 Rue Sans Pave 59560 Comines",0.95,"Vente","Maison Individuelle"
"Méthode 3CL","3CL-DPE, version 1.3","2013-04-12",395,"F",92,"G",1948,90,49.400735,2.810336,"4 Rue Jean Lhuillier 60200 Compiègne",0.96,"Vente","Maison Individuelle"
"Méthode Facture",,"2013-04-15",232,"E",7,"B",1947,120,48.632588,-0.552711,"3 Rue du Mont Oger 61700 Dompierre",0.8,"Vente","Maison Individuelle"
"3CL - DPE","V2012","2013-04-13",589.9,"G",52.49,"E",1952,51.77,50.465979,1.589028,"126 Rue des Flaques 62155 Merlimont",0.78,"Vente","Maison Individuelle"
"3CL - DPE","V2012","2013-04-04",117.29,"C",35.19,"D",1900,68,45.432241999999995,3.3413769999999996,"4 Rue de la Chaussade 63570 Jumeaux",0.78,"Vente","Maison Individuelle"
"Méthode Facture",,"2013-04-15",0,"N",0,"N",1947,23.21,43.371454,-1.785307,"123 Boulevard de la Mer 64700 Hendaye",0.67,"Vente","Bâtiments ou partie de bâtiment à usage principal autre que d'habitation"
"3CL - DPE","V2012","2013-04-11",538.77,"G",122.47,"G",1957,67.09,43.207905,0.097102,"Impasse Gabriel Péri 65430 Soues",0.81,"Vente","Maison Individuelle"
"3CL - DPE","V2012","2013-04-05",321.88,"E",77.9,"F",1969,94.5,42.604011,2.402329,"6 Rue du Pla 66500 Ria-Sirach",0.75,"Location","Maison Individuelle"
"Méthode Facture",,"2013-04-16",185,"D",55,"E",1947,84.5,48.582082,7.734211999999999,"43 Rue du Faubourg National 67000 Strasbourg",0.96,"Location","Logement"
"3CL - DPE","V2012","2013-04-12",0,"N",0,"N",1930,100.8,48.262865999999995,7.226121000000001,"60 Rue Maurice Burrus 68160 Sainte-Croix-aux-Mines",0.83,"Vente","Logement"
"3CL","3CL-DPE, version 1.3","2013-04-10",254,"E",47,"E",1978,97,46.096197,4.325061,"Impasse des Pins 69470 Cours",0.67,"Location","Maison Individuelle"
"3CL - DPE","V2012","2013-04-22",116.6,"C",27.28,"D",1947,69.8,47.572825,6.768422999999999,"64 Avenue Jean Jaurés 70400 Héricourt",0.81,"Vente","Logement"
"Méthode 3CL","3CL-DPE, version 1.3","2013-04-18",294,"E",16,"C",2006,87,46.487246999999996,4.100576,"Les Plaines 71600 Saint-Léger-lès-Paray",0.82,"Location","Maison Individuelle"
"3CL - DPE","V2012","2013-04-11",277.94,"E",14.41,"C",1975,165.94,,,,,"Location","Maison Individuelle"
"Méthode 3CL","3CL-DPE, version 1.3","2013-04-29",225,"D",52,"E",2001,37.5,45.548632,5.986117,"57 Av Louis Domenget 73190 Challes-les-Eaux",0.81,"Vente","Logement"
"3CL","3CL-DPE, version 1.3","2013-04-11",0,"N",0,"N",1975,20.9,46.181457,6.719702000000001,"Rte d'Avoriaz 74110 Morzine",0.35,"Vente","Logement"
"Méthode Facture",,"2013-04-11",692,"G",22,"D",1947,23.86,48.890654999999995,2.378637,"32 Rue de Joinville 75019 Paris",0.96,"Vente","Logement"
"3CL - DPE","V2012","2013-04-03",299.81,"E",17.4,"C",1975,115,49.719264,0.328042,"73 Rue des Pres 76400 Froberville",0.77,"Vente","Maison Individuelle"
"TROIS_CL_DPE","VERSION_2012","2013-04-10",353.56,"F",18.79,"C",2001,60,49.003412,3.015376,"4 Rue de la Briqueterie 77440 Isles-les-Meldeuses",0.82,"Vente","Maison Individuelle"
"TROIS_CL_DPE","VERSION_2012","2013-04-12",163.01,"D",38.14,"E",1980,98.07,48.768958000000005,2.0416819999999998,"3 Rue Christophe Colomb 78180 Montigny-le-Bretonneux",0.85,"Vente","Logement"
"3CL","3CL-DPE, version 1.3","2013-04-11",184,"D",8,"B",1989,66,46.36373,-0.108778,"10 Route de Salles 79800 La Mothe-Saint-Héray",0.94,"Vente","Maison Individuelle"
"Méthode Facture",,"2013-04-09",211,"D",49,"E",1947,128,50.004486,2.648866,"26 Rue Anicet Godin 80300 Albert",0.95,"Vente","Maison Individuelle"
"3CL - DPE","V2012","2013-04-29",201.56,"D",10.37,"B",2012,107.4,43.660218,2.025675,"Route du Château 81220 Serviès",0.55,"Vente","Maison Individuelle"
"3CL - DPE","V2012","2013-04-18",103.5,"C",6.69,"B",1950,249.79,43.999676,1.4089049999999999,"2173 Route de Saint- Martial 82000 Montauban",0.72,"Vente","Maison Individuelle"
"Facture","facture","2013-04-09",0,"N",0,"N",6060,80,43.629306,6.224362,"13 Rue Montolivet 83630 Aups",0.94,"Vente","Maison Individuelle"
"Méthode 3CL","3CL-DPE, version 1.3","2013-04-15",335,"F",17,"C",1975,115.85,43.883174,5.299359,"Le Jas 84220 Roussillon",0.66,"Location","Maison Individuelle"
"Méthode 3CL","3CL-DPE, version 1.3","2013-05-02",131,"C",23,"D",1989,117.5,46.784521000000005,-1.423033,"17 Rue des Charmes 85170 Bellevigny",0.66,"Vente","Maison Individuelle"
"3CL","3CL-DPE, version 1.3","2013-04-12",193,"D",10,"B",2001,123.45,46.470158000000005,0.06944,"5 Cité du Champ de la Croix 86600 Jazeneuil",0.94,"Vente","Maison Individuelle"
"3CL - DPE","V2012","2013-04-11",390.6,"F",23.83,"D",1981,135.4,45.876864000000005,0.969657,"12 Route de la Ribière du Bouchet 87200 Saint-Brice-sur-Vienne",0.78,"Vente","Maison Individuelle"
"Méthode Facture",,"2013-04-11",128,"C",2,"A",1947,95,48.408898,6.8431619999999995,"18 Rue Wessval 88110 Raon-l'Étape",0.95,"Vente","Maison Individuelle"
"3CL - DPE","V2012","2013-05-02",227.91,"D",53.33,"E",1930,112,48.326836,3.082023,"20 Rue des Buttes 89340 Villeblevin",0.78,"Vente","Maison Individuelle"
"Méthode 3CL","3CL-DPE, version 1.3","2013-04-15",487,"G",114,"G",1948,95,47.624074,6.848124,"1 Rue Claude Bernard 90000 Belfort",0.96,"Vente","Maison Individuelle"
"3CL","3CL-DPE, version 1.3","2013-04-10",177,"D",41,"E",1984,79.04,48.720263,2.467665,"7 Rue Georges Bizet 91560 Crosne",0.95,"Vente","Maison Individuelle"
"Méthode Facture",,"2013-04-16",379,"F",12,"C",1947,31,48.921945,2.284864,"66 Rue Robert Dupont 92600 Asnières-sur-Seine",0.96,"Vente","Logement"
"Méthode 3CL","3CL-DPE, version 1.3","2013-04-15",347,"F",81,"G",1948,74,48.943676,2.587143,"54 Rue de Normandie 93290 Tremblay-en-France",0.95,"Vente","Maison Individuelle"
"3CL","3CL-DPE, version 1.3","2013-04-12",439,"F",102,"G",1948,64.34,48.840784,2.46905,"86 Boulevard Gambetta 94130 Nogent-sur-Marne",0.72,"Location","Logement"
"Méthode 3CL","3CL-DPE, version 1.3","2013-04-11",344,"F",19,"C",1989,39,49.048552,2.010755,"3 Place des 3 Gares 95800 Cergy",0.63,"Vente","Logement"
"3CL","Version 1.3","2013-04-08",319.91,"E",18.2,"C",1976,102.38,45.947484,4.733061,"212 Chemin de la Bruyere 01600 Saint-Bernard",0.75,"Vente","Maison Individuelle"
"3CL - DPE","V2012","2013-04-23",373.3,"F",19.83,"C",1949,48,49.662401,3.3672769999999996,"3 Rue du Petit Poncelet 02800 La Fère",0.79,"Vente","Logement"
"Méthode Facture",,"2013-04-24",192,"D",2,"A",1947,250,46.159156,3.285443,"Route d'Escurolles 03110 Saint-Pont",0.65,"Vente","Maison Individuelle"
"Méthode 3CL","3CL-DPE, version 1.3","2013-05-10",571,"G",34,"D",1983,57,43.777852,6.10655,"Chemin de Sainte Croix (Montagnac) 04500 Montagnac-Montpezat",0.78,"Vente","Maison Individuelle"
"Méthode 3CL","3CL-DPE, version 1.3","2013-04-20",631,"G",38,"E",1978,44,44.622541999999996,6.634919,"Rue Centrale 05600 Risoul",0.46,"Vente","Logement"
"Méthode 3CL","3CL-DPE, version 1.3","2013-04-11",63,"B",14,"C",2006,95.45,43.628504,7.119403,"822 Avenue de Vaugrenier 06270 Villeneuve-Loubet",0.63,"Location","Logement"
"Méthode 3CL","3CL-DPE, version 1.3","2013-04-19",279,"E",3,"A",1948,173,44.649904,4.659078,"Quartier Cix 07400 Saint-Martin-sur-Lavezon",0.73,"Vente","Maison Individuelle"
"Méthode Facture",,"2013-05-03",0,"N",0,"N",1947,60,49.778296999999995,4.734991,"19 Rue de Saint Aubin 08000 Charleville-Mézières",0.7,"Vente","Maison Individuelle"
"Méthode 3CL","3CL-DPE, version 1.3","2013-05-11",123,"C",28,"D",1989,131.79,47.372479999999996,4.361428,"Rue du Moulin à Vent 21390 Nan-sous-Thil",0.2,"Vente","Maison Individuelle"
"Méthode 3CL","3CL-DPE, version 1.3","2013-05-03",246,"E",14,"C",2006,103.38,48.165845000000004,4.224377,"22 Rue des Dahlias 10260 Saint-Parres-lès-Vaudes",0.94,"Vente","Maison Individuelle"
"Méthode 3CL","3CL-DPE, version 1.3","2013-04-15",195,"D",9,"B",1989,35,43.114703000000006,3.107654,"Résidence Bora Bora 11430 Gruissan",0.77,"Vente","Maison Individuelle"
"3CL - DPE","V2012","2013-05-10",477.58,"G",122.91,"G",1974,76.43,44.300647999999995,2.567303,"Camps de Serin 12450 Luc-la-Primaube",0.46,"Location","Maison Individuelle"
"3CL","3CL-DPE, version 1.3","2013-04-12",210,"D",12,"C",1981,94.32,43.293064,5.450856,"Boulevard de la Pomme 13011 Marseille",0.5,"Vente","Maison Individuelle"
"3CL","3CL-DPE, version 1.3","2013-04-14",287,"E",15,"C",1989,95,49.147467999999996,-0.48535,"8 Clos des Pommiers 14790 Mouen",0.83,"Vente","Maison Individuelle"
"Méthode 3CL","3CL-DPE, version 1.3","2013-05-21",269,"E",63,"F",1948,108,44.930221,2.4342189999999997,"15 Rue des Alouettes 15000 Aurillac",0.95,"Vente","Maison Individuelle"
"FACTURE - DPE","V2012","2013-04-09",28.26,"A",6.61,"B",2006,87.5,45.63127,0.166008,"Hameau des Rossignols 16000 Angoulême",0.76,"Neuf","Maison Individuelle"
"3CL - DPE","V2012","2013-04-12",185.9,"D",3.54,"A",1949,136.58,45.773156,-1.155143,"55 Rue de la Garde 17390 La Tremblade",0.52,"Vente","Maison Individuelle"
"3CL - DPE","V2012","2013-04-25",0,"N",0,"N",1800,77.32,,,,,"Vente","Maison Individuelle"
"Méthode Facture",,"2013-05-16",122,"C",3,"A",1947,58,45.157563,1.533088,"26 Rue Saint Martin 19100 Brive-la-Gaillarde",0.96,"Vente","Logement"
"Méthode 3CL","3CL-DPE, version 1.3","2013-04-23",189,"D",7,"B",2001,50.52,47.350359000000005,5.0508440000000006,"27 Place Granville 21000 Dijon",0.59,"Vente","Logement"
"FACTURE","VERSION_2012","2013-05-01",410.77,"F",13.37,"C",1947,70,,,,,"Vente","Maison Individuelle"
"TROIS_CL_DPE","VERSION_2012","2013-04-23",678.34,"G",36.63,"E",1966,92,46.219522,1.779122,"1 Pautour 23320 Saint-Vaury",0.73,"Vente","Maison Individuelle"
"Méthode 3CL","3CL-DPE, version 1.3","2013-05-03",226,"D",10,"B",2006,90,44.829223999999996,1.286391,"Lieu Dit Pech de Pleyvere 24200 Carsac-Aillac",0.72,"Vente","Maison Individuelle"
"Méthode 3CL","3CL-DPE, version 1.3","2013-05-02",638,"G",168,"G",1948,90,47.503561,6.796158999999999,"28 Rue de la Beuse aux Loups 25200 Montbéliard",0.95,"Vente","Maison Individuelle"
"Méthode 3CL","3CL-DPE, version 1.3","2013-04-18",209,"D",49,"E",1948,103.89,44.856448,4.909807,"15 Rue des Blacheres 26800 Beauvallon",0.75,"Vente","Maison Individuelle"
"TROIS_CL_DPE","VERSION_2012","2013-04-22",166.83,"D",39.03,"E",2008,106,49.173853,1.354522,"La Maison Rouge 27940 Le Val d'Hazey",0.26,"Location","Maison Individuelle"
"Méthode 3CL","3CL-DPE, version 1.3","2013-04-15",380,"F",21,"D",1948,77,48.569117999999996,1.601905,"18 Rue de la Villeneuve 28130 Houx",0.85,"Vente","Maison Individuelle"
"TROIS_CL_DPE","VERSION_2012","2013-04-23",240.53,"E",53.8,"E",1968,96.74,47.856283000000005,-4.038611,"15 Chemin de Ménez Rouz 29170 Fouesnant",0.63,"Vente","Maison Individuelle"
"Méthode 3CL","3CL-DPE, version 1.3","2013-05-06",138,"C",32,"D",7000,94.73,41.912293,8.712836,"Monte Cacalovo 20000 Ajaccio",0.47,"Location","Logement"
"Méthode 3CL","3CL-DPE, version 1.3","2013-05-16",130,"C",5,"A",2006,129.59,42.808454,9.486828,"Cudicciu 20233 Sisco",0.59,"Vente","Maison Individuelle"
"Méthode 3CL","3CL-DPE, version 1.3","2013-04-09",185,"D",7,"B",1989,73,43.787507,4.197182,"7 Avenue Frederic Mistral 30420 Calvisson",0.95,"Vente","Logement"
"3CL","3CL-DPE, version 1.3","2013-04-09",221,"D",11,"C",2001,49.41,43.60443,1.364101,"10 Rue de Nego Saoumos 31300 Toulouse",0.89,"Vente","Logement"
"Méthode 3CL","3CL-DPE, version 1.3","2013-04-16",448,"F",57,"F",1948,92,43.759473,0.304315,"13 Rue Lafayette 32190 Vic-Fezensac",0.94,"Vente","Maison Individuelle"
"3CL","3CL-DPE, version 1.3","2013-04-10",160,"D",7,"B",2006,127.88,44.646149,-0.501876,"10 Allée de l'Esprit des Lois 33650 Saint-Morillon",0.85,"Vente","Maison Individuelle"
"3CL","3CL-DPE, version 1.3","2013-04-09",437,"F",42,"E",1948,43.86,43.613524,3.8549889999999998,"30 Rue François Villeneuve 34070 Montpellier",0.66,"Location","Logement"
"Facture","facture","2013-04-12",0,"N",0,"N",1948,30,47.923978000000005,-2.057677,"La Giguais 35330 Val d'Anast",0.45,"Vente","Maison Individuelle"
"Méthode Facture",,"2013-04-12",204,"D",31,"D",1947,147,46.475722999999995,2.148057,"Le Champ Grelat 36160 Pérassay",0.5,"Vente","Maison Individuelle"
"3CL - DPE","V2012","2013-04-11",112.31,"C",33.69,"D",1900,133.07,47.440838,0.585622,"62 Rue Principale 37390 Saint-Roch",0.77,"Vente","Maison Individuelle"
"Méthode Facture",,"2013-04-05",217,"D",65,"F",1,50.46,45.340267,5.050342,"67 Chemin du Plein - Ciel 38270 Beaurepaire",0.59,"Vente","Logement"
"3CL - DPE","V2012","2013-05-04",262.83,"E",10.11,"B",1975,88,46.872955,5.434772,"1 Chemin de la Louvaire 39230 Rye",0.76,"Vente","Maison Individuelle"
"Méthode 3CL","3CL-DPE, version 1.3","2013-04-18",179,"D",8,"B",2006,95,43.935552,-0.520426,"Route de Loubit 40090 Uchacq-et-Parentis",0.94,"Location","Maison Individuelle"
"3CL - DPE","V2012","2013-04-15",200.64,"D",60.19,"F",1974,164.67,47.496332,1.114069,"22 Route de la Grivelière 41150 Mesland",0.7,"Vente","Maison Individuelle"
"3CL - DPE","V2012","2013-04-09",318.57,"E",74.55,"F",1970,75.93,45.433924,4.415696,"146 Rue de la Richelandiere 42100 Saint-Étienne",0.85,"Vente","Logement"
"3CL - DPE","V2012","2013-04-04",329.24,"E",18.54,"C",2008,91.64,45.402658,3.3117970000000003,"3 Impasse Marielle et Elvire Barbier 43250 Sainte-Florine",0.54,"Vente","Maison Individuelle"
"3CL - DPE","V2012","2013-04-11",319.73,"E",17.31,"C",2002,82.2,47.27738,-1.288159,"3 Rue Sainte-anne 44450 Divatte-sur-Loire",0.53,"Vente","Maison Individuelle"
"TROIS_CL_DPE","VERSION_2012","2013-04-15",319.72,"E",17.91,"C",2004,43.04,47.858104,1.9045729999999998,"430 Boulevard Victor Hugo 45160 Olivet",0.81,"Location","Logement"
"3CL - DPE","V2012","2013-05-07",201.16,"D",45.34,"E",1974,201,44.700764,1.414671,"Cote de Souillaguet 46300 Saint-Cirq-Souillaguet",0.57,"Vente","Maison Individuelle"
"3CL - DPE","V2012","2013-05-02",149.26,"C",7.26,"B",1991,124,44.396257,0.801251,"5 Rue des Terrasses du Lot 47140 Saint-Sylvestre-sur-Lot",0.67,"Vente","Maison Individuelle"
"Méthode Facture",,"2013-05-07",0,"N",0,"N",1947,75,44.558617,3.8336690000000004,"Prat Claux (Chasseradès) 48190 Mont Lozère et Goulet",0.37,"Vente","Maison Individuelle"
"Méthode 3CL","3CL-DPE, version 1.3","2013-04-19",621,"G",38,"E",1948,86,47.375646,-0.106529,"13 Rue des Champs-renault 49160 Longué-Jumelles",0.8,"Vente","Maison Individuelle"
"Méthode 3CL","3CL-DPE, version 1.3","2013-04-15",285,"E",85,"G",1948,140,49.549797999999996,-1.6920549999999999,"7 Hameau les Connétables 50690 Couville",0.73,"Vente","Maison Individuelle"
"Méthode 3CL","3CL-DPE, version 1.3","2013-04-24",300,"E",16,"C",1978,98,48.710245,4.586657,"17 Rue des Sorbiers 51300 Frignicourt",0.94,"Vente","Maison Individuelle"
"3CL - DPE","V2012","2013-05-03",155,"D",7,"B",2004,152,48.03107,5.444182,"7 Rue Charles Cornevin 52140 Is-en-Bassigny",0.89,"Vente","Maison Individuelle"
"Méthode 3CL","3CL-DPE, version 1.3","2013-04-19",260,"E",54,"E",1948,85,48.541616,-0.20601399999999997,"19 Rue des Vieux Métiers 53140 Lignières-Orgères",0.88,"Location","Maison Individuelle"
"3CL - DPE","V2012","2013-04-15",324.64,"E",18.68,"C",1974,56.08,49.513855,5.759493,"14 Rue Jacob Weill 54400 Longwy",0.68,"Vente","Maison Individuelle"
"Méthode Facture",,"2013-04-17",0,"N",0,"N",1947,68,48.602557,5.681586,"4 Rue de Rouvau 55140 Chalaines",0.9,"Vente","Maison Individuelle"
"3CL","3CL-DPE, version 1.3","2013-04-10",355,"F",80,"F",1948,65,47.593871,-2.916681,"27 Rue du Lanno 56870 Baden",0.82,"Vente","Maison Individuelle"
"TROIS_CL_DPE","VERSION_2012","2013-04-12",292.08,"E",87.62,"G",1960,152.8,49.194924,6.574349000000001,"39 Rue de la Forêt 57220 Coume",0.75,"Vente","Maison Individuelle"
"3CL - DPE","V2012","2013-05-03",212,"D",11,"C",2005,91,49.426404999999995,3.361151,"Le Chateau 02880 Clamecy",0.29,"Vente","Maison Individuelle"
"Méthode 3CL","3CL-DPE, version 1.3","2013-04-16",137,"C",32,"D",1983,159,50.675697,2.876853,"32 Rue du Docteur Schweitzer 59930 La Chapelle-d'Armentières",0.78,"Vente","Maison Individuelle"
"Méthode 3CL","3CL-DPE, version 1.3","2013-04-19",272,"E",16,"C",1948,150,49.406366999999996,2.116708,"16 Rue de Villers 60000 Allonne",0.94,"Vente","Maison Individuelle"
"Méthode 3CL","3CL-DPE, version 1.3","2013-04-16",570,"G",35,"D",1948,52,48.639026,-0.209786,"8 Rue des 5 Martins 61150 Rânes",0.69,"Vente","Maison Individuelle"
"3CL - DPE","V2012","2013-04-12",250.75,"E",58.68,"F",1930,118.6,50.52898,2.6284490000000003,"120 Rue de Fouquereuil 62400 Béthune",0.8,"Vente","Maison Individuelle"
"3CL - DPE","V2012","2013-04-12",0,"N",0,"N",1920,42,45.444084000000004,3.2878160000000003,"Rue des Combes 63570 Beaulieu",0.74,"Vente","Maison Individuelle"
"3CL - DPE","V2012","2013-04-17",54.04,"B",12.65,"C",1850,53.38,43.297323,-0.36445900000000003,"11 Rue Mathieu Lalanne 64000 Pau",0.78,"Vente","Logement"
"3CL - DPE","V2012","2013-04-15",646.25,"G",40.7,"E",1956,88.7,43.102984,-0.170491,"Rue du Lupy 65270 Saint-Pé-de-Bigorre",0.78,"Vente","Maison Individuelle"
"3CL - DPE","V2012","2013-04-04",0,"N",0,"N",1900,65,42.568255,2.3229599999999997,"45 Rue du Sola 66360 Serdinya",0.64,"Vente","Maison Individuelle"
"3CL - DPE","V2012","2013-04-17",302.14,"E",15.89,"C",1983,59,48.271844,7.400608,"13 Rue Clemenceau 67730 Châtenois",0.79,"Vente","Logement"
"Méthode 3CL","3CL-DPE, version 1.3","2013-04-15",289,"E",86,"G",1978,89,47.823119,7.356256,"5 Rue du 1er Mai 68270 Ruelisheim",0.94,"Vente","Maison Individuelle"
"3CL","3CL-DPE, version 1.3","2013-04-10",117,"C",27,"D",1948,95,46.100252000000005,4.322396,"2 Rue General Leclerc 69470 Cours",0.75,"Location","Logement"
"3CL - DPE","V2012","2013-04-23",224.98,"D",12.56,"C",1947,128,47.644767,6.677225999999999,"4 Route de Champagney 70400 Étobon",0.78,"Vente","Maison Individuelle"
"Méthode Facture",,"2013-04-18",0,"N",0,"N",1947,76,46.6303,3.9784,"La Chapelle-au-Mans",0.68,"Vente","Maison Individuelle"
"Méthode 3CL","3CL-DPE, version 1.3","2013-04-19",154,"D",36,"E",1948,168,48.000986,0.18195,"123 Rue de la Grande Maison 72000 Le Mans",0.96,"Vente","Maison Individuelle"
"Méthode Facture",,"2013-05-03",313,"E",73,"F",1947,60,45.271198,6.354146,"R des Chaudannes 73300 Saint-Jean-de-Maurienne",0.69,"Location","Logement"
"3CL","3CL-DPE, version 1.3","2013-04-11",507,"G",27,"D",1975,20.9,46.181457,6.719702000000001,"Rte d'Avoriaz 74110 Morzine",0.35,"Vente","Logement"
"Méthode Facture",,"2013-04-11",324,"E",75,"F",1947,54.89,48.840033,2.39799,"7 Rue du Docteur Goujon 75012 Paris",0.96,"Vente","Logement"
"3CL - DPE","V2012","2013-04-10",251.07,"E",58.75,"F",1965,61.8,49.756754,0.372155,"Rue de Barry 76400 Fécamp",0.72,"Vente","Logement"
"FACTURE","VERSION_2012","2013-04-11",104.95,"C",1.62,"A",1900,54,48.947593,3.133302,"Rue de Condé 77260 La Ferté-sous-Jouarre",0.74,"Location","Logement"
"FACTURE","VERSION_2012","2013-04-12",261.42,"E",0,"A",1970,8.75,48.81497,2.137595,"9 Rue Mansart 78000 Versailles",0.77,"Vente","Logement"
"3CL - DPE","V2012","2013-04-10",398.09,"F",86.58,"G",1963,71.5,46.823741999999996,-0.660334,"1 Rue Bir Hakeim 79140 Cerizay",0.64,"Vente","Maison Individuelle"
"Méthode Facture",,"2013-04-11",196,"D",36,"E",1947,154,50.006318,2.648118,"19 Rue Félix Faure 80300 Albert",0.87,"Vente","Maison Individuelle"
"Méthode 3CL","3CL-DPE, version 1.3","2013-05-02",161,"D",37,"E",1948,142.44,43.910166,2.141866,"19 Chemin de Mézard 81000 Albi",0.96,"Vente","Maison Individuelle"
"3CL - DPE","V2012","2013-04-24",234.65,"E",4.47,"A",1999,99.86,44.033073,1.3548229999999999,"990 Avenue de Falguières 82000 Montauban",0.82,"Vente","Maison Individuelle"
"3CL - DPE","V2012","2013-04-09",129.95,"C",30.41,"D",1961,52.71,43.085475,6.107946,"6 Avenue des Alouettes 83320 Carqueiranne",0.81,"Vente","Logement"
"Méthode 3CL","3CL-DPE, version 1.3","2013-04-15",479,"G",25,"D",1948,118.25,43.885799,5.4242300000000006,"95 La Doa 84400 Apt",0.42,"Vente","Maison Individuelle"
"Méthode 3CL","3CL-DPE, version 1.3","2013-05-02",343,"F",103,"G",1948,95,46.768534,-1.431075,"Le Petit Bourbon 85170 Bellevigny",0.65,"Vente","Maison Individuelle"
"3CL - DPE","V2012","2013-04-15",290.32,"E",54.57,"E",1972,151,,,,,"Vente","Maison Individuelle"
"3CL - DPE","V2012","2013-04-16",443.48,"F",103.78,"G",1953,98,45.888428999999995,0.890653,"26 Faubourg Liebknecht 87200 Saint-Junien",0.82,"Vente","Maison Individuelle"
"3CL - DPE","V2012","2013-04-13",375.22,"F",50.22,"E",1962,90,48.297168,6.126248,"91 Rue Gustave Jacquot 88500 Mirecourt",0.81,"Vente","Maison Individuelle"
"Méthode Facture",,"2013-04-16",568,"G",155,"G",1947,70,47.473038,4.030575,"13 Rue de la Terre Plaine 89420 Cussy-les-Forges",0.77,"Vente","Maison Individuelle"
"Méthode 3CL","3CL-DPE, version 1.3","2013-04-15",315,"E",18,"C",1983,65.94,47.646359000000004,6.859324000000001,"20 d Rue de la Croix du Tilleul 90000 Belfort",0.96,"Location","Logement"
"Méthode 3CL","3CL-DPE, version 1.3","2013-04-16",345,"F",19,"C",1989,27.5,48.73053,2.2198130000000003,"3 ter Rue Guynemer 91430 Igny",0.95,"Location","Logement"
"3CL","Version 1.3","2013-04-17",182.63,"D",42.74,"E",1978,69.56,48.877669,2.213493,"15 Rue des Chèvremonts 92000 Nanterre",0.75,"Location","Logement"
"FACTURE","VERSION_2012","2013-04-16",238.69,"E",55.85,"E",1930,81,48.959346000000004,2.351943,"40 Rue Gabriel Péri 93430 Villetaneuse",0.81,"Vente","Maison Individuelle"
"3CL - DPE","V2012","2013-04-13",210.37,"D",10.01,"B",2007,82,48.838817,2.509028,"82 Avenue du Général de Gaulle 94170 Le Perreux-sur-Marne",0.86,"Vente","Logement"
"Méthode Facture",,"2013-04-12",157,"D",4,"A",1947,104.2,48.963832000000004,2.3280540000000003,"16 Rue Louis Braille 95170 Deuil-la-Barre",0.95,"Vente","Logement"
"3CL","Version 1.3","2013-04-05",148.09,"C",34.65,"D",2004,114.8,45.996559999999995,5.1616040000000005,"Parc des Ormes 01320 Chalamont",0.58,"Vente","Maison Individuelle"
"3CL - DPE","V2012","2013-04-24",169.12,"D",37.84,"E",1949,86,49.662401,3.3672769999999996,"3 Rue du Petit Poncelet 02800 La Fère",0.79,"Vente","Logement"
"Méthode Facture",,"2013-04-16",431,"F",12,"C",1,70.8,46.557638,3.3303339999999997,"11 Rue de Serbie 03000 Moulins",0.95,"Location","Logement"
"Méthode 3CL","3CL-DPE, version 1.3","2013-05-10",75,"B",17,"C",1992,140,44.088105,6.004938,"Rue de Fontaraia 04160 Château-Arnoux-Saint-Auban",0.89,"Vente","Maison Individuelle"
"Méthode 3CL","3CL-DPE, version 1.3","2013-04-19",278,"E",14,"C",1989,63.75,44.563053000000004,6.481746,"Lotissement les Vignes V 05200 Embrun",0.55,"Vente","Logement"
"Méthode Facture",,"2013-04-13",294,"E",68,"F",1947,72.47,43.580515999999996,7.098198,"230 Boulevard Pierre Delmas 06600 Antibes",0.96,"Location","Logement"
"Méthode 3CL","3CL-DPE, version 1.3","2013-04-19",341,"F",4,"A",1948,116,44.541813,4.677965,"Chemin de Jarniac 07400 Le Teil",0.95,"Vente","Maison Individuelle"
"Méthode Facture",,"2013-05-03",0,"N",0,"N",1947,45.77,49.763009999999994,4.707744,"10 Rue Léon Blum 08000 Charleville-Mézières",0.65,"Vente","Logement"
"Méthode 3CL","3CL-DPE, version 1.3","2013-05-06",348,"F",81,"G",1948,41.15,,,,,"Location","Logement"
"Méthode Facture",,"2013-05-03",0,"N",0,"N",1947,35,48.301190000000005,4.082663,"44 Rue du Reverend Pere Lafra 10000 Troyes",0.96,"Location","Logement"
"Méthode 3CL","3CL-DPE, version 1.3","2013-04-15",195,"D",9,"B",1989,35,43.114703000000006,3.107654,"Résidence Bora Bora 11430 Gruissan",0.77,"Vente","Maison Individuelle"
"3CL - DPE","V2012","2013-05-10",477.58,"G",122.91,"G",1974,76.43,44.300647999999995,2.567303,"Camps de Serin 12450 Luc-la-Primaube",0.46,"Location","Maison Individuelle"
"Méthode 3CL","3CL-DPE, version 1.3","2013-04-14",199,"D",46,"E",1948,88.55,43.332547999999996,5.463464,"Chemin Antoine Camoin 13190 Allauch",0.6,"Vente","Logement"
"Méthode Facture",,"2013-04-17",0,"N",0,"N",1947,16,49.364231,0.08367999999999999,"3 Rue Durand Couyere 14360 Trouville-sur-Mer",0.86,"Vente","Logement"
"Méthode Facture",,"2013-05-21",202,"D",29,"D",1947,80,44.921853000000006,2.444186,"Residence du Puy Courny 15000 Aurillac",0.6,"Vente","Logement"
"FACTURE - DPE","V2012","2013-04-09",28.32,"A",6.63,"B",2006,87.5,45.63127,0.166008,"Hameau des Rossignols 16000 Angoulême",0.76,"Neuf","Maison Individuelle"
"3CL - DPE","V2012","2013-04-11",0,"N",0,"N",1900,0,46.162162,-1.14895,"4 Rue des Cloutiers 17000 La Rochelle",0.86,"Vente","Bâtiments ou partie de bâtiment à usage principal autre que d'habitation"
"3CL - DPE","V2012","2013-04-26",215.33,"D",10.53,"B",1998,86.43,47.261927,2.691741,"Les Anes 18250 Humbligny",0.69,"Vente","Maison Individuelle"
"Méthode Facture",,"2013-05-17",239,"E",38,"E",1947,104,45.145742,1.537075,"52 Rue des Freres Dupinet 19100 Brive-la-Gaillarde",0.96,"Vente","Maison Individuelle"
"Méthode 3CL","3CL-DPE, version 1.3","2013-04-25",260,"E",60,"F",1948,51,47.313995,5.041257,"13 Rue Charles Dumont 21000 Dijon",0.88,"Location","Logement"
"TROIS_CL_DPE","VERSION_2012","2013-05-01",224.24,"D",10.43,"B",1978,77.34,48.723467,-3.482429,"7 Rue de Kerhuellan 22300 Lannion",0.68,"Vente","Maison Individuelle"
"TROIS_CL_DPE","VERSION_2012","2013-04-23",397.75,"F",22.87,"D",1966,75,46.046388,1.856063,"3 Rue Etang de Masmangeas 23250 Sardent",0.73,"Location","Maison Individuelle"
"3CL - DPE","V2012","2013-05-06",241.63,"E",54.63,"E",1974,142.44,44.821832,1.356631,"Manobre 24370 Sainte-Mondane",0.58,"Vente","Maison Individuelle"
"Méthode Facture",,"2013-05-02",298,"E",62,"E",1947,110,47.449225,6.582286,"1 Rue du Mal de Lattre de Tassigny 25250 L'Isle-sur-le-Doubs",0.87,"Vente","Bâtiments ou partie de bâtiment à usage principal autre que d'habitation"
"Méthode Facture",,"2013-04-19",253,"E",58,"F",1,67,44.49375,4.72101,"Allee Bellevue 26780 Châteauneuf-du-Rhône",0.64,"Vente","Logement"
"TROIS_CL_DPE","VERSION_2012","2013-04-22",110.25,"C",25.79,"D",2004,106.38,49.173853,1.354522,"La Maison Rouge 27940 Le Val d'Hazey",0.26,"Location","Maison Individuelle"
"Méthode Facture",,"2013-04-17",173,"D",5,"A",1947,301,48.411854999999996,1.841394,"4 Grande Rue 28700 Maisons",0.93,"Vente","Maison Individuelle"
"3CL - DPE","V2012","2013-04-23",280.3,"E",13.11,"C",1982,85.39,47.954006,-3.447854,"Keroualo 29300 Guilligomarc'h",0.76,"Vente","Maison Individuelle"
"Méthode 3CL","3CL-DPE, version 1.3","2013-05-07",361,"F",19,"C",1948,54.87,41.591623999999996,9.280483,"5 Rue de la Citadelle 20137 Porto-Vecchio",0.95,"Location","Logement"
"3CL - DPE","V2012","2013-05-20",229.25,"D",9.68,"B",2000,44.69,,,,,"Vente","Logement"
"Méthode 3CL","3CL-DPE, version 1.3","2013-04-17",181,"D",9,"B",2006,72,43.802988,4.156847,"Plaine du Mas d'Escates 30420 Calvisson",0.49,"Vente","Logement"
"3CL","3CL-DPE, version 1.3","2013-04-09",166,"D",8,"B",1989,85,43.59022,1.3796059999999999,"247 Avenue de Lardenne 31100 Toulouse",0.97,"Location","Maison Individuelle"
"TROIS_CL_DPE","VERSION_2012","2013-04-19",208.37,"D",10.65,"B",1985,100,41.919987,8.729442,"Residence les Aloes Batiment E 20000 Ajaccio",0.52,"Vente","Maison Individuelle"
"3CL","3CL-DPE, version 1.3","2013-04-09",383,"F",19,"C",1948,31.88,44.733996000000005,-0.591213,"11 Rue de la Liberté 33850 Léognan",0.95,"Location","Maison Individuelle"
"3CL - DPE","V2012","2013-04-12",220.11,"D",10.93,"B",1989,87,43.659462,4.005961,"2 Rue Edouard Manet 34670 Baillargues",0.8,"Vente","Maison Individuelle"
"Méthode Facture",,"2013-04-15",196,"D",45,"E",1,15.12,48.1282,-1.646289,"270 Rue de Fougères 35700 Rennes",0.96,"Vente","Logement"
"Méthode Facture",,"2013-04-10",159,"D",37,"E",1947,65.73,46.942889,1.997193,"1 Rue Montante 36100 Issoudun",0.95,"Vente","Maison Individuelle"
"Méthode Facture",,"2013-04-08",413,"F",96,"G",1,26,47.391942,0.673493,"26 Rue du Chanoine Dalmas 37000 Tours",0.61,"Location","Logement"
"Méthode 3CL","3CL-DPE, version 1.3","2013-04-11",226,"D",8,"B",2006,105,45.324346000000006,5.025232,"2390 Chemin de Fayaret 38270 Beaurepaire",0.62,"Vente","Maison Individuelle"
"3CL - DPE","V2012","2013-05-07",288,"E",67,"F",1975,70,47.090939,5.484573,"38 Avenue Georges Pompidou 39100 Dole",0.81,"Location","Logement"
"Méthode 3CL","3CL-DPE, version 1.3","2013-04-19",201,"D",6,"B",2005,80,43.993225,-0.527982,"432 Rue de l'Ecureuil 40090 Cère",0.93,"Vente","Maison Individuelle"
"3CL - DPE","V2012","2013-04-15",276.81,"E",64.77,"F",1975,108.25,47.608259000000004,1.138565,"21 Rue du Moulin à Vent 41190 Herbault",0.8,"Vente","Maison Individuelle"
"Méthode Facture",,"2013-04-24",160,"D",37,"E",1947,116.5,46.050892,3.9220919999999997,"23 Place Crionnet 42370 Renaison",0.94,"Vente","Maison Individuelle"
"3CL - DPE","V2012","2013-04-02",213.11,"D",6.94,"B",1900,123,45.3421,3.7246,"Malvières",0.4,"Vente","Maison Individuelle"
"3CL - DPE","V2012","2013-04-12",229.87,"D",10.96,"B",2010,71.5,47.258808,-1.5191430000000001,"2 Route de Carquefou 44300 Nantes",0.79,"Location","Logement"
"Méthode 3CL","3CL-DPE, version 1.3","2013-04-16",502,"G",123,"G",1975,77.93,47.783587,1.6213389999999999,"6 Rue du Clos Saint Jean 45190 Beaugency",0.68,"Vente","Maison Individuelle"
"3CL - DPE","V2012","2013-05-07",97.52,"C",4.01,"A",2005,89,44.785104,1.467802,"Route du Colombie 46350 Payrac",0.51,"Vente","Maison Individuelle"
"FACTURE - DPE","V2012","2013-05-02",197.67,"D",23.02,"D",1948,284,44.056108,0.25804699999999997,"2 Boulevard Armand Fallieres 47170 Mézin",0.81,"Vente","Maison Individuelle"
"Méthode 3CL","3CL-DPE, version 1.3","2013-05-15",509,"G",136,"G",1948,140,44.727146999999995,3.8546690000000003,"28 Boulevard Notre-dame 48300 Langogne",0.94,"Vente","Maison Individuelle"
"TROIS_CL_DPE","VERSION_2012","2013-04-19",214.15,"D",11.87,"C",1999,140,47.49042,-0.513538,"2 Rue du Harnais 49100 Angers",0.44,"Vente","Maison Individuelle"
"Méthode 3CL","3CL-DPE, version 1.3","2013-04-16",129,"C",30,"D",1989,125,49.582166,-1.611667,"36 Les Bertrands 50470 Tollevast",0.94,"Vente","Maison Individuelle"
"Méthode Facture",,"2013-04-24",0,"N",0,"N",1947,110,48.726269,4.591721,"32 Rue du Vieux Port 51300 Vitry-le-François",0.95,"Vente","Maison Individuelle"
"Méthode Facture",,"2013-05-06",360,"F",6,"B",1947,113,48.341266999999995,5.135243,"54 Grande Rue 52320 Gudmont-Villiers",0.93,"Vente","Maison Individuelle"
"Méthode Facture",,"2013-04-22",159,"D",33,"D",1947,114.7,48.110076,-0.714047,"La Gare 53950 Louverné",0.95,"Vente","Maison Individuelle"
"3CL - DPE","V2012","2013-04-15",318.17,"E",18.23,"C",1974,56.08,49.513855,5.759493,"14 Rue Jacob Weill 54400 Longwy",0.68,"Vente","Maison Individuelle"
"Méthode 3CL","3CL-DPE, version 1.3","2013-04-23",353,"F",105,"G",1948,77,49.03743,5.657217,"10 Rue de la Promenade 55210 Hannonville-sous-les-Côtes",0.94,"Vente","Maison Individuelle"
"3CL - DPE","V2012","2013-04-13",581.05,"G",32.93,"D",1950,31.68,47.761143,-3.384344,"3 Rue Emile Chartier Dit Alain 56100 Lorient",0.64,"Location","Logement"
"TROIS_CL_DPE","VERSION_2012","2013-04-18",212.59,"D",14.83,"C",2013,47.5,49.104397,6.592339,"23 Rue Pierre Klein 57690 Bambiderstroff",0.8,"Location","Logement"
"3CL - DPE","V2012","2013-05-06",170.72,"D",39.95,"E",2000,54.52,46.827490999999995,3.4625440000000003,"18 Rue Paul Bert 58300 Decize",0.75,"Copropriété","Logement"
"Méthode Facture",,"2013-04-09",153,"D",36,"E",1947,88,50.328277,3.532571,"25 f Rue de Feleine 59300 Aulnoy-lez-Valenciennes",0.87,"Vente","Maison Individuelle"
"Méthode 3CL","3CL-DPE, version 1.3","2013-04-11",428,"F",102,"G",1948,75,49.406366999999996,2.116708,"16 Rue de Villers 60000 Allonne",0.94,"Vente","Maison Individuelle"
"Méthode Facture",,"2013-04-17",154,"D",46,"E",1947,262,48.816715,-0.09527200000000001,"Lieu Dit Clinchamps 61160 Montabard",0.93,"Vente","Maison Individuelle"
"Méthode 3CL","3CL-DPE, version 1.3","2013-04-21",636,"G",134,"G",1948,64.13,50.603527,2.456825,"129 Rue Basse 62330 Isbergues",0.95,"Vente","Maison Individuelle"
"Méthode Facture",,"2013-04-23",130,"C",35,"D",1947,104.5,46.022762,3.202662,"160 Grande Rue 63260 Aigueperse",0.94,"Centre commercial","Centre Commerciaux"
"Méthode Facture",,"2013-04-19",255,"E",59,"F",1947,53.1,43.481468,-1.548844,"6 Rue des Pte Soeurs des Pauvres 64200 Biarritz",0.35,"Vente","Logement"
"3CL - DPE","V2012","2013-04-15",92.9,"C",3.36,"A",2006,128.45,43.053776,-0.007611,"Chemin des Aouits 65100 Juncalas",0.77,"Vente","Maison Individuelle"
"3CL - DPE","V2012","2013-04-04",105.47,"C",21.53,"D",1981,92,42.676074,2.906725,"12 Rue du Roc du Midi 66100 Perpignan",0.75,"Vente","Logement"
"Méthode 3CL","3CL-DPE, version 1.3","2013-04-18",136,"C",31,"D",2001,79.42,48.531263,7.631505000000001,"12 Route de Strasbourg 67960 Entzheim",0.94,"Vente","Logement"
"Méthode 3CL","3CL-DPE, version 1.3","2013-04-19",300,"E",70,"F",1948,66.78,48.071397,7.362241,"3 Rue des Roses 68000 Colmar",0.96,"Vente","Logement"
"3CL","3CL-DPE, version 1.3","2013-04-11",203,"D",9,"B",1989,128,45.902515,4.842814,"Rue Antonin Penet 69730 Genay",0.32,"Location","Maison Individuelle"
"3CL - DPE","V2012","2013-04-27",169.82,"D",39.74,"E",1947,150,47.575796999999994,6.757826,"7 Rue des Arts 70400 Héricourt",0.78,"Vente","Maison Individuelle"
"Méthode Facture",,"2013-04-19",378,"F",38,"E",1947,89,46.553121000000004,4.179734,"Saint Eloi 71430 Palinges",0.76,"Vente","Maison Individuelle"
"Méthode Facture",,"2013-04-18",153,"C",4,"A",1,545.6,47.97379,0.215013,"Place Paul Cezanne 72100 Le Mans",0.96,"Vente","Bâtiments ou partie de bâtiment à usage principal autre que d'habitation"
"3CL - DPE","V2012","2013-05-03",233.33,"E",54.6,"E",1987,99.34,45.652314000000004,5.892085,"168 R du Colonel Bachetta 73420 Viviers-du-Lac",0.75,"Vente","Maison Individuelle"
"3CL","3CL-DPE, version 1.3","2013-04-12",89,"B",4,"A",1989,319.45,46.345304,6.284369,"Che de la Crozette 74140 Messery",0.81,"Vente","Maison Individuelle"
"FACTURE","VERSION_2012","2013-04-12",377.68,"F",12.29,"C",1850,38.9,48.848469,2.374087,"55 Rue Traversière 75012 Paris",0.84,"Vente","Logement"
"Méthode 3CL","3CL-DPE, version 1.3","2013-04-15",293,"E",16,"C",2006,100,50.017319,1.317842,"9 Rue de l'Hospice 76910 Criel-sur-Mer",0.94,"Vente","Maison Individuelle"
"TROIS_CL_DPE","VERSION_2012","2013-04-15",298.79,"E",14.17,"C",1995,32,49.037399,2.801484,"79 Rue du Général Maunoury 77165 Saint-Soupplets",0.8,"Vente","Logement"
"3CL","Version 1.3","2013-04-15",70.51,"B",3.95,"A",2009,203.39,48.994755,2.100478,"49 bis Rue Pasteur 78700 Conflans-Sainte-Honorine",0.78,"Vente","Maison Individuelle"
"3CL - DPE","V2012","2013-04-12",293.51,"E",13.15,"C",1949,44,46.632881,-0.5659350000000001,"Rue des Fleurs 79240 L'Absie",0.45,"Location","Maison Individuelle"
"Méthode 3CL","3CL-DPE, version 1.3","2013-04-09",212,"D",9,"B",2001,60.05,49.899583,2.302577,"15 Passage du Sourire d'Avril 80000 Amiens",0.66,"Location","Logement"
"Méthode 3CL","3CL-DPE, version 1.3","2013-05-05",245,"E",57,"F",1948,35,43.925621,2.157971,"57 Rue Plaine Saint Martin 81000 Albi",0.74,"Location","Logement"
"3CL - DPE","V2012","2013-05-02",728.51,"G",47.16,"E",1973,28.03,44.015901,1.3619809999999999,"24 Rue Joseph Lakanal 82000 Montauban",0.63,"Vente","Logement"
"3CL","3CL-DPE, version 1.3","2013-04-09",80,"B",2,"A",2001,148,43.452857,5.873621,"29 a Rue Eloise 83470 Saint-Maximin-la-Sainte-Baume",0.95,"Vente","Maison Individuelle"
"Méthode 3CL","3CL-DPE, version 1.3","2013-04-16",112,"C",33,"D",1948,202.97,43.868786,5.383578,"Route de Buoux 84400 Apt",0.62,"Vente","Maison Individuelle"
"Méthode Facture",,"2013-04-29",127,"C",24,"D",1947,152,46.835522999999995,-1.565509,"La Vrignaudière 85170 Beaufou",0.94,"Vente","Maison Individuelle"
"Méthode 3CL","3CL-DPE, version 1.3","2013-04-15",153,"D",46,"E",1975,130.21,46.58043,0.439722,"97 Route de Chantelle 86800 Sèvres-Anxaumont",0.94,"Vente","Maison Individuelle"
"Méthode 3CL","3CL-DPE, version 1.3","2013-04-16",268,"E",14,"C",2001,96.4,45.712298,1.29411,"Petit Menieras 87110 Le Vigen",0.85,"Location","Maison Individuelle"
"3CL - DPE","V2012","2013-04-13",288.31,"E",61.44,"F",1960,90,48.287122,6.4706529999999995,"1 Rue de Derriere la Ville 88330 Domèvre-sur-Durbion",0.81,"Location","Maison Individuelle"
"Méthode 3CL","3CL-DPE, version 1.3","2013-05-06",217,"D",65,"F",1978,185,47.589993,4.006639,"5 Chemin des Fontaines 89440 L'Isle-sur-Serein",0.94,"Vente","Maison Individuelle"
"3CL - DPE","V2012","2013-04-15",282.52,"E",66.11,"F",1850,132,47.731291999999996,6.845464,"4 Av du General Charles de Gaulle 90200 Rougegoutte",0.6,"Vente","Maison Individuelle"
"Méthode 3CL","3CL-DPE, version 1.3","2013-04-05",392,"F",117,"G",1948,70,48.67328,2.320488,"4 Rue du Pavillon 91360 Épinay-sur-Orge",0.95,"Vente","Maison Individuelle"
"FACTURE - DPE","V2012","2013-04-18",489.93,"G",114.64,"G",1974,81.71,48.898433000000004,2.24025,"48 Boulevard de la Mission Marchand 92400 Courbevoie",0.85,"Vente","Logement"
"FACTURE","VERSION_2012","2013-04-16",238.69,"E",55.85,"E",1930,81,48.959346000000004,2.351943,"40 Rue Gabriel Péri 93430 Villetaneuse",0.81,"Vente","Maison Individuelle"
"Méthode 3CL","3CL-DPE, version 1.3","2013-04-11",233,"E",22,"D",2006,39,48.792334000000004,2.337278,"Avenue Louis Georgeon 94230 Cachan",0.75,"Location","Logement"
"Méthode 3CL","3CL-DPE, version 1.3","2013-04-11",218,"D",51,"E",1948,67.38,48.970975,2.323922,"54 Rue Napoléon Fauveau 95170 Deuil-la-Barre",0.95,"Vente","Logement"
"Méthode 3CL","3CL-DPE, version 1.3","2013-04-16",210,"D",11,"C",2000,120.62,46.332867,5.172544,"Route du Village d'En Haut 01340 Bresse Vallons",0.57,"Vente","Maison Individuelle"
"3CL - DPE","V2012","2013-04-29",418.21,"F",77.25,"F",1952,54,49.662906,3.282076,"21 Rue Louis Sulpice 02700 Tergnier",0.68,"Vente","Maison Individuelle"
"Méthode Facture",,"2013-04-16",431,"F",12,"C",1,70.8,46.557638,3.3303339999999997,"11 Rue de Serbie 03000 Moulins",0.95,"Location","Logement"
"3CL - DPE","V2012","2013-05-15",241,"E",12,"C",2007,84,44.297733,5.937018,"Plaine de Chane 04200 Vaumeilh",0.35,"Location","Maison Individuelle"
"Méthode 3CL","3CL-DPE, version 1.3","2013-04-23",319,"E",77,"F",1948,86,44.569671,6.1085449999999994,"55 Route de la Justice 05000 Gap",0.96,"Vente","Logement"
"Méthode 3CL","3CL-DPE, version 1.3","2013-04-15",214,"D",8,"B",1993,38.26,43.558298,6.9610710000000005,"83 Avenue Maurice Chevalier 06150 Cannes",0.74,"Vente","Logement"
"TROIS_CL_DPE","VERSION_2012","2013-04-19",124.33,"C",48.9,"E",2005,140,44.551086,4.491574,"Le Petit Tournon 07170 Villeneuve-de-Berg",0.82,"Vente","Maison Individuelle"
"Méthode 3CL","3CL-DPE, version 1.3","2013-05-03",222,"D",52,"E",1948,71.59,49.81605,4.738848,"9 Rue Pasteur 08700 Nouzonville",0.95,"Vente","Logement"
"Méthode Facture",,"2013-05-11",431,"F",11,"C",1947,126.84,42.99503,1.43907,"Lieu Dit le Balle 09240 Nescus",0.56,"Vente","Maison Individuelle"
"Méthode Facture",,"2013-05-03",159,"C",23,"C",1947,1078,48.316590000000005,4.023803,"23 Rue des Freres Michelin 10600 La Chapelle-Saint-Luc",0.95,"Vente","Bâtiments ou partie de bâtiment à usage principal autre que d'habitation"
"Méthode 3CL","3CL-DPE, version 1.3","2013-04-16",182,"D",9,"B",1978,40,43.130522,3.1309549999999997,"Résidence Maisons du Rivage Bleu 11430 Gruissan",0.74,"Vente","Maison Individuelle"
"3CL - DPE","V2012","2013-05-10",650.2,"G",173.79,"G",1974,80.17,44.599531,2.396973,"Rue du Château (Conques) 12320 Conques-en-Rouergue",0.45,"Vente","Maison Individuelle"
"Méthode 3CL","3CL-DPE, version 1.3","2013-04-15",214,"D",7,"B",1989,22.64,43.304037,5.417243,"Rue des Electriciens 13012 Marseille",0.73,"Vente","Logement"
"Méthode 3CL","3CL-DPE, version 1.3","2013-04-18",270,"E",66,"F",1948,100,48.966871999999995,-0.244619,"4 Rue Rene Brosseau 14420 Potigny",0.43,"Vente","Maison Individuelle"
"FACTURE","VERSION_2012","2013-05-23",325.78,"E",76.62,"F",1900,107,44.947434,2.954009,"Les Pres de Tagenac (Neuvéglise) 15260 Neuvéglise-sur-Truyère",0.42,"Vente","Maison Individuelle"
"FACTURE - DPE","V2012","2013-04-09",28.26,"A",6.61,"B",2006,87.5,45.63127,0.166008,"Hameau des Rossignols 16000 Angoulême",0.76,"Neuf","Maison Individuelle"
"3CL - DPE","V2012","2013-04-11",0,"N",0,"N",1900,75,46.162162,-1.14895,"4 Rue des Cloutiers 17000 La Rochelle",0.86,"Vente","Logement"
"3CL - DPE","V2012","2013-05-02",224.28,"D",48.65,"E",1850,193.48,47.212617,2.447658,"L'Orgevaux 18110 Quantilly",0.74,"Vente","Maison Individuelle"
"Méthode 3CL","3CL-DPE, version 1.3","2013-05-21",385,"F",18,"C",1975,99,45.28308,1.550597,"4 Route de Fontbelle 19270 Sadroc",0.94,"Location","Maison Individuelle"
"Méthode 3CL","3CL-DPE, version 1.3","2013-04-22",381,"F",90,"G",1948,87.6,47.33852,5.056847,"17 Avenue de Stalingrad 21000 Dijon",0.96,"Vente","Maison Individuelle"
"Méthode 3CL","3CL-DPE, version 1.3","2013-05-02",163,"D",8,"B",2006,76,48.64839,-2.367755,"34 Rue des Tertres Maurions 22240 Fréhel",0.55,"Location","Maison Individuelle"
"Méthode 3CL","3CL-DPE, version 1.3","2013-04-25",255,"E",23,"D",1978,115.5,46.176955,2.485582,"5 Rue des Thermes 23110 Évaux-les-Bains",0.84,"Vente","Maison Individuelle"
"3CL - DPE","V2012","2013-05-06",440.66,"F",27.81,"D",1970,132,44.656428999999996,1.080708,"La Mouline 24550 Saint-Cernin-de-l'Herm",0.68,"Vente","Maison Individuelle"
"Méthode Facture",,"2013-05-02",0,"N",0,"N",1947,80.7,47.2739,6.00327,"89 Chemin de Valentin 25000 Besançon",0.96,"Vente","Maison Individuelle"
"Méthode 3CL","3CL-DPE, version 1.3","2013-04-19",242,"E",56,"F",1951,68.11,44.928174,4.902638,"9 Rue Louis Verdet 26000 Valence",0.96,"Vente","Logement"
"Méthode Facture",,"2013-04-19",182,"D",22,"D",1947,133,48.997406,1.317177,"3 Rue du Soleil Levant 27120 Caillouet-Orgeville",0.94,"Vente","Maison Individuelle"
"3CL","3CL-DPE, version 1.3","2013-04-26",396,"F",88,"G",1948,61,48.500595000000004,1.7189880000000002,"Rue d'Angles 28700 Le Gué-de-Longroi",0.65,"Vente","Maison Individuelle"
"TROIS_CL_DPE","VERSION_2012","2013-04-26",225.56,"D",9.77,"B",2008,119,47.797596,-4.273208,"4 Impasse du Menez 29730 Treffiagat",0.78,"Vente","Maison Individuelle"
"Méthode Facture",,"2013-04-25",155,"D",5,"A",1947,100,41.514851,9.014174,"Teggia 20171 Monacia-d'Aullène",0.6,"Vente","Maison Individuelle"
"Méthode 3CL","3CL-DPE, version 1.3","2013-05-21",408,"F",19,"C",1975,19.73,42.599581,9.494423,"Residence Alba Marana 20290 Borgo",0.5,"Vente","Maison Individuelle"
"Méthode Facture",,"2013-04-15",307,"E",10,"B",1947,119.6,44.288441,4.1017529999999995,"12 Rue Docteur Paul Vermale 30160 Bessèges",0.88,"Vente","Logement"
"3CL","3CL-DPE, version 1.3","2013-04-09",209,"D",10,"B",2001,40.55,43.586324,1.3414979999999999,"30 Boulevard Eugène Montel 31170 Tournefeuille",0.95,"Vente","Logement"
"Méthode Facture",,"2013-04-09",251,"E",8,"B",1947,159,43.438418,0.579244,"72 Avenue Jules Duffort 32140 Masseube",0.94,"Vente","Maison Individuelle"
"3CL - DPE","V2012","2013-04-03",243.98,"E",57.09,"F",1940,125,44.639368,-1.113327,"5 Avenue de la Plage 33470 Gujan-Mestras",0.81,"Vente","Maison Individuelle"
"Méthode Facture",,"2013-04-12",97,"C",27,"D",1,36,43.545046,3.9770589999999997,"Quai Auguste Meynier Carnon 34280 Mauguio",0.74,"Vente","Logement"
"Méthode 3CL","3CL-DPE, version 1.3","2013-04-15",308,"E",51,"E",1962,64,48.09816,-1.789934,"35 Avenue des Erables 35650 Le Rheu",0.95,"Vente","Maison Individuelle"
"Méthode Facture",,"2013-04-25",215,"D",7,"B",1947,118.01,47.035183,1.9539830000000002,"Poncet la Ville 36260 Paudy",0.54,"Vente","Maison Individuelle"
"3CL - DPE","V2012","2013-04-10",245.72,"E",6.11,"B",1850,87,47.392693,0.645223,"Quai de la Guignière 37230 Fondettes",0.37,"Vente","Maison Individuelle"
"Méthode 3CL","3CL-DPE, version 1.3","2013-04-15",399,"F",99,"G",1948,115,45.340946,5.042887,"475 Route de Pact 38270 Beaurepaire",0.72,"Vente","Maison Individuelle"
"3CL - DPE","V2012","2013-05-07",288,"E",67,"F",1975,70,47.090939,5.484573,"38 Avenue Georges Pompidou 39100 Dole",0.81,"Location","Logement"
"Méthode 3CL","3CL-DPE, version 1.3","2013-04-23",206,"D",9,"B",2005,80,43.782857,-0.43295500000000003,"5 Rue du Gal G Adrien Daydrein 40270 Grenade-sur-l'Adour",0.74,"Vente","Maison Individuelle"
"3CL - DPE","V2012","2013-04-15",200.64,"D",60.19,"F",1974,164.67,47.496332,1.114069,"22 Route de la Grivelière 41150 Mesland",0.7,"Vente","Maison Individuelle"
"Méthode Facture",,"2013-04-26",177,"D",41,"E",1947,64,46.033148,4.07494,"6 Rue Centrale 42300 Roanne",0.95,"Vente","Maison Individuelle"
"3CL - DPE","V2012","2013-04-11",0,"N",0,"N",1930,102,44.959292,3.548333,"Rue des Prés 43170 Saugues",0.72,"Vente","Maison Individuelle"
"Méthode 3CL","3CL-DPE, version 1.3","2013-04-14",189,"D",44,"E",1948,74.67,47.27433,-2.21272,"2 Rue de Bretagne 44600 Saint-Nazaire",0.96,"Vente","Logement"
"Méthode Facture",,"2013-04-17",173,"D",40,"E",1947,121,47.926471,1.883603,"97 Rue des Chaises 45140 Saint-Jean-de-la-Ruelle",0.95,"Vente","Maison Individuelle"
"3CL - DPE","V2012","2013-05-08",84.47,"B",3.81,"A",2005,89,44.785104,1.467802,"Route du Colombie 46350 Payrac",0.51,"Vente","Maison Individuelle"
"FACTURE - DPE","V2012","2013-05-04",0,"N",0,"N",1948,106,44.203686,0.617432,"76 Rue Montesquieu 47000 Agen",0.83,"Vente","Logement"
"Méthode 3CL","3CL-DPE, version 1.3","2013-05-17",484,"G",145,"G",1978,83,44.723898999999996,3.8508739999999997,"3 Chemin des Lombards 48300 Langogne",0.94,"Vente","Maison Individuelle"
"TROIS_CL_DPE","VERSION_2012","2013-04-19",104.67,"C",5.47,"A",1985,300,47.461416,-0.598669,"2 Rue du Hameau de la Fontaine 49000 Angers",0.44,"Vente","Maison Individuelle"
"Méthode 3CL","3CL-DPE, version 1.3","2013-04-16",229,"D",18,"C",1948,97.48,49.641013,-1.604917,"2 Rue Carnot (Tourlaville) 50110 Cherbourg-en-Cotentin",0.9,"Vente","Maison Individuelle"
"TROIS_CL_DPE","VERSION_2012","2013-04-30",590.85,"G",31.54,"D",1967,97,48.835704,3.585867,"Le Bas d'Armantin 51210 Bergères-sous-Montmirail",0.34,"Vente","Maison Individuelle"
"Méthode Facture",,"2013-05-06",348,"F",11,"C",1947,47,48.637606,4.945721,"22 bis Avenue de la République 52100 Saint-Dizier",0.95,"Vente","Logement"
"Méthode 3CL","3CL-DPE, version 1.3","2013-04-23",304,"E",71,"F",1948,109.62,48.058907,-0.7458520000000001,"74 Boulevard Kellermann 53000 Laval",0.7,"Vente","Maison Individuelle"
"Méthode Facture",,"2013-04-13",222,"D",5,"A",1946,109,49.143458,5.933093,"8 Rue Victor Jungers 54800 Doncourt-lès-Conflans",0.94,"Vente","Maison Individuelle"
"Méthode Facture",,"2013-04-29",0,"N",0,"N",1947,120.66,49.390133,5.458394999999999,"10 Rue Napoléon 55150 Dombras",0.93,"Location","Maison Individuelle"
"3CL","3CL-DPE, version 1.3","2013-04-11",557,"G",31,"D",1983,21.7,47.565821,-2.941561,"Route de Kerpenhir 56740 Locmariaquer",0.94,"Vente","Logement"
"FACTURE","VERSION_2012","2013-04-18",0,"A",0,"A",1900,129,49.156217,6.921473,"10 Rue de Forbach 57600 Folkling",0.76,"Vente","Maison Individuelle"
"3CL - DPE","V2012","2013-05-06",262.62,"E",61.45,"F",2000,50.7,46.827490999999995,3.4625440000000003,"18 Rue Paul Bert 58300 Decize",0.75,"Copropriété","Logement"
"Méthode Facture",,"2013-04-05",141,"C",33,"D",1947,125,50.293502000000004,3.574179,"11 Rue d'Artres 59990 Maresches",0.73,"Vente","Maison Individuelle"
"Méthode Facture",,"2013-04-12",327,"E",10,"B",1,63.83,49.567612,2.4216990000000003,"Rue Neuve 60120 Gannes",0.93,"Neuf","Maison Individuelle"
"Méthode 3CL","3CL-DPE, version 1.3","2013-04-17",1122,"G",74,"F",1948,70,48.570426,-0.32758899999999996,"Le Bourg 61600 Magny-le-Désert",0.94,"Vente","Maison Individuelle"
"Méthode Facture",,"2013-04-23",438,"F",14,"C",1947,158,50.443954999999995,2.724486,"33 Rue Léon Baillot 62160 Bully-les-Mines",0.82,"Vente","Maison Individuelle"
"3CL - DPE","V2012","2013-04-24",360.96,"F",21.19,"D",1978,89.13,45.423026,3.324242,"5 Rue des Rivaux 63570 Brassac-les-Mines",0.81,"Vente","Maison Individuelle"
"3CL - DPE","V2012","2013-04-18",246.05,"D",8.01,"B",1990,0,48.903951,2.589154,"Impasse Joliot Curie 77500 Chelles",0.56,"Vente","Bâtiments ou partie de bâtiment à usage principal autre que d'habitation"
"3CL - DPE","V2012","2013-04-16",224.1,"D",42.14,"E",1961,78.84,43.119671999999994,-0.078153,"Rue Saint Louis 65100 Poueyferré",0.76,"Vente","Maison Individuelle"
"3CL - DPE","V2012","2013-04-06",352.32,"F",21.75,"D",1983,125.5,42.566441,2.378863,"21 Carrer d'Avall 66820 Corneilla-de-Conflent",0.58,"Vente","Maison Individuelle"
"Méthode Facture",,"2013-04-20",174,"D",52,"E",1947,42,48.580125,7.746361,"4 Rue des Serruriers 67000 Strasbourg",0.96,"Location","Logement"
"Méthode 3CL","3CL-DPE, version 1.3","2013-04-24",322,"E",16,"C",1989,43,47.600889,7.490578,"26 Rue du Hopfet 68730 Blotzheim",0.95,"Location","Logement"
"3CL","3CL-DPE, version 1.3","2013-04-12",278,"E",13,"C",1975,127.67,45.78151,5.01855,"4 Rue Louis Pergaud 69330 Meyzieu",0.6,"Vente","Maison Individuelle"
"3CL - DPE","V2012","2013-05-02",241.9,"E",56.6,"F",1947,90,47.580973,6.742850999999999,"72 Avenue de Saint-valbert 70400 Héricourt",0.83,"Vente","Maison Individuelle"
"Méthode 3CL","3CL-DPE, version 1.3","2013-04-19",359,"F",27,"D",1989,46.21,46.500871999999994,4.301157,"Impasse de Pringues 71120 Baron",0.6,"Location","Maison Individuelle"
"3CL - DPE","V2012","2013-04-23",225.35,"D",44.28,"E",1975,77,,,,,"Location","Maison Individuelle"
"Méthode 3CL","3CL-DPE, version 1.3","2013-05-03",218,"D",40,"E",1948,76.84,45.588206,5.91629,"26 R d'Anjou 73000 Chambéry",0.83,"Vente","Logement"
"Méthode 3CL","3CL-DPE, version 1.3","2013-04-05",466,"G",25,"D",1989,41.58,45.888959,6.7965029999999995,"48 Rte de Bellevarde 74310 Les Houches",0.85,"Vente","Logement"
"Méthode Facture",,"2013-04-12",309,"E",10,"B",1,80,48.839417,2.398832,"70 Boulevard de Reuilly 75012 Paris",0.96,"Vente","Logement"
"3CL - DPE","V2012","2013-04-15",33.93,"A",7.94,"B",1900,300,49.760221,0.365573,"62 Rue Maupas 76400 Fécamp",0.73,"Vente","Maison Individuelle"
"FACTURE","VERSION_2012","2013-04-15",104.95,"C",1.62,"A",1900,54,48.947593,3.133302,"Rue de Condé 77260 La Ferté-sous-Jouarre",0.74,"Location","Logement"
"Méthode Facture",,"2013-04-17",0,"N",0,"N",1947,50.07,48.792021000000005,2.156259,"76 Rue Rémont 78000 Versailles",0.96,"Vente","Maison Individuelle"
"3CL - DPE","V2012","2013-04-12",0,"N",0,"N",1947,66.12,46.976996,-0.472933,"4 Rue de la Liberte 79150 Argentonnay",0.6,"Vente","Maison Individuelle"
"Méthode 3CL","3CL-DPE, version 1.3","2013-04-12",118,"C",5,"A",2006,105.9,49.830165,2.8685549999999997,"17 Rue du Tour des Haies 80200 Marchélepot-Misery",0.8,"Location","Maison Individuelle"
"Méthode Facture",,"2013-05-06",218,"D",7,"B",1800,118,43.582138,2.185241,"13 Rue du Four 81710 Saïx",0.94,"Vente","Maison Individuelle"
"Méthode 3CL","3CL-DPE, version 1.3","2013-03-26",413,"F",27,"D",1978,75,44.066326000000004,1.453523,"2720 Rte de Saint Etienne de Tulmont 82350 Albias",0.79,"Location","Maison Individuelle"
"3CL","3CL-DPE, version 1.3","2013-04-10",504,"G",30,"D",1948,63,43.408307,5.9184470000000005,"Chemin de la Foux 83170 Tourves",0.84,"Vente","Maison Individuelle"
"Méthode 3CL","3CL-DPE, version 1.3","2013-04-18",265,"E",12,"C",1948,84.73,43.890349,5.340788,"Chemin des Loriots 84400 Gargas",0.94,"Vente","Maison Individuelle"
"Méthode 3CL","3CL-DPE, version 1.3","2013-05-02",427,"F",25,"D",1948,39,46.663940000000004,-1.432549,"40 bis Rue Serpentine 85000 La Roche-sur-Yon",0.96,"Location","Maison Individuelle"
"3CL - DPE","V2012","2013-04-16",448.6,"F",22.65,"D",1950,78.85,46.636084000000004,0.44497200000000003,"La Roche de Bran 86360 Montamisé",0.78,"Location","Maison Individuelle"
"3CL - DPE","V2012","2013-04-18",225.13,"D",10.49,"B",2002,122.5,45.931340000000006,1.0186979999999999,"Route de Saint Junien 87520 Oradour-sur-Glane",0.77,"Vente","Maison Individuelle"
"3CL - DPE","V2012","2013-04-14",362.4,"F",17.66,"C",1981,99,48.226469,6.51661,"207 Rue du Calmant 88000 Longchamp",0.78,"Vente","Maison Individuelle"
"Méthode Facture",,"2013-05-03",0,"N",0,"N",1947,94,47.362519,4.081288,"9 La Provenchere 89630 Saint-Léger-Vauban",0.93,"Vente","Maison Individuelle"
"Méthode 3CL","3CL-DPE, version 1.3","2013-04-15",243,"E",57,"F",1991,79,47.653729999999996,6.854178999999999,"1 Rue Antoine Parmentier 90000 Belfort",0.76,"Vente","Logement"
"TROIS_CL_DPE","VERSION_2012","2013-04-16",340.35,"F",79.64,"F",1970,98.5,48.732464,2.2139029999999997,"11 Rue Française 91430 Vauhallan",0.77,"Vente","Maison Individuelle"
"Méthode Facture",,"2013-04-19",0,"N",0,"N",1,168.85,48.74859,2.3039810000000003,"78 Avenue de la Division Leclerc 92160 Antony",0.78,"Vente","Bâtiments ou partie de bâtiment à usage principal autre que d'habitation"
"FACTURE","VERSION_2012","2013-04-16",238.69,"E",55.85,"E",1930,81,48.959346000000004,2.351943,"40 Rue Gabriel Péri 93430 Villetaneuse",0.81,"Vente","Maison Individuelle"
"3CL - DPE","V2012","2013-04-24",492.84,"G",29.14,"D",1982,55.81,48.765112,2.3904360000000002,"12 Place du Marché 94320 Thiais",0.77,"Location","Logement"
"Méthode 3CL","3CL-DPE, version 1.3","2013-04-15",411,"F",96,"G",1975,94,48.937723,2.221968,"16 bis Rue des Aulnettes 95100 Argenteuil",0.89,"Vente","Maison Individuelle"
"Méthode 3CL","3CL-DPE, version 1.3","2013-04-18",221,"D",32,"D",1972,170,46.266156,5.663307,"9 Chemin de Tresin 01100 Oyonnax",0.95,"Vente","Maison Individuelle"
"3CL - DPE","V2012","2013-04-29",364.61,"F",85.32,"G",1952,80,49.66042,3.347521,"4 Rue Poullavec 02800 Beautor",0.75,"Vente","Maison Individuelle"
"Méthode Facture",,"2013-04-25",344,"F",94,"G",1947,53,46.353882,3.6960029999999997,"2 Chemin de Coudrais 03130 Montcombroux-les-Mines",0.86,"Vente","Maison Individuelle"
"3CL - DPE","V2012","2013-05-18",170,"D",51,"E",1966,172,44.109209,6.011664,"La Coueste 04290 Volonne",0.55,"Vente","Maison Individuelle"
"Méthode 3CL","3CL-DPE, version 1.3","2013-04-28",561,"G",31,"D",1978,20.75,44.563053000000004,6.481746,"Lotissement les Vignes V 05200 Embrun",0.42,"Vente","Logement"
"Méthode 3CL","3CL-DPE, version 1.3","2013-04-15",272,"E",63,"F",1983,122.52,43.560465,6.9763850000000005,"42 b Avenue Francois Tuby 06150 Cannes",0.59,"Location","Logement"
"TROIS_CL_DPE","VERSION_2012","2013-04-22",124.33,"C",48.9,"E",2005,140,44.551086,4.491574,"Le Petit Tournon 07170 Villeneuve-de-Berg",0.82,"Vente","Maison Individuelle"
"Méthode Facture",,"2013-05-03",419,"F",9,"B",1947,80.26,49.677963,4.657578,"1 bis Rue Lion 08430 Yvernaumont",0.77,"Location","Maison Individuelle"
"Méthode 3CL","3CL-DPE, version 1.3","2013-05-11",147,"C",8,"B",2006,319.89,43.109459,1.717587,"Mounede et Pouticayre 09100 Saint-Amadou",0.93,"Vente","Maison Individuelle"
"FACTURE - DPE","V2012","2013-05-02",70.19,"N",2.29,"N",1948,116,48.022102000000004,4.106802,"3 Rue du Chesnoy 10210 Cussangy",0.48,"Vente","Maison Individuelle"
"3CL - DPE","V2012","2013-04-17",151.38,"D",5.58,"A",1982,46.6,42.845983000000004,3.0356400000000003,"38 Résidence Hameau des Pécheurs 11370 Leucate",0.82,"Vente","Maison Individuelle"
"3CL - DPE","V2012","2013-05-10",650.2,"G",173.79,"G",1974,80.17,44.599531,2.396973,"Rue du Château (Conques) 12320 Conques-en-Rouergue",0.45,"Vente","Maison Individuelle"
"Méthode 3CL","3CL-DPE, version 1.3","2013-04-15",142,"C",18,"C",1948,56.31,43.298308,5.371055,"6 Rue Mery 13002 Marseille",0.86,"Location","Logement"
"Méthode 3CL","3CL-DPE, version 1.3","2013-04-18",307,"E",18,"C",1981,69.8,49.351816,0.070869,"52 Avenue Florian de Kergorlay 14800 Deauville",0.55,"Vente","Logement"
"3cl","V2012","2013-05-23",245,"E",73,"F",1960,155.5,45.423499,2.499579,"Rue des Cayres 15270 Lanobre",0.44,"Vente","Maison Individuelle"
"FACTURE - DPE","V2012","2013-04-09",29.62,"A",6.93,"B",2006,87.5,45.63127,0.166008,"Hameau des Rossignols 16000 Angoulême",0.76,"Neuf","Maison Individuelle"
"3CL - DPE","V2012","2013-04-11",0,"N",0,"N",1900,37.9,46.162162,-1.14895,"4 Rue des Cloutiers 17000 La Rochelle",0.86,"Vente","Logement"
"TROIS_CL_DPE","VERSION_2012","2013-05-03",165.11,"D",9.48,"B",1980,300.85,47.221019,2.111277,"Chemin des Fondereaux 18100 Vierzon",0.85,"Vente","Maison Individuelle"
"Méthode 3CL","3CL-DPE, version 1.3","2013-05-21",192,"D",9,"B",2009,115,45.225039,1.549779,"Chemin des Maurines 19270 Donzenac",0.59,"Vente","Maison Individuelle"
"Méthode 3CL","3CL-DPE, version 1.3","2013-04-26",153,"D",35,"D",2000,82,47.348848,5.055731,"21 Avenue Franklin Delano Roosevelt 21000 Dijon",0.66,"Vente","Logement"
"3CL - DPE","V2012","2013-05-02",335.87,"F",21.29,"D",1940,126,48.298592,-2.369789,"La Rouvrais 22250 Rouillac",0.74,"Vente","Maison Individuelle"
"FACTURE","VERSION_2012","2013-05-01",0,"A",0,"A",1930,47,46.159218,1.6450360000000002,"11 Rue des Petits Ouvriers 23240 Le Grand-Bourg",0.82,"Vente","Maison Individuelle"
"FACTURE - DPE","V2012","2013-05-02",0,"N",0,"N",1948,330,45.328875,0.582769,"Route de St Julien 24310 Bourdeilles",0.53,"Vente","Maison Individuelle"
"Méthode 3CL","3CL-DPE, version 1.3","2013-05-03",294,"E",16,"C",1993,40.95,47.51012,6.788939999999999,"48 b Rue des Potiers 25200 Montbéliard",0.95,"Vente","Logement"
"Méthode 3CL","3CL-DPE, version 1.3","2013-04-17",206,"D",10,"B",2010,89,45.302334,5.002808,"Impasse des Acacias 26210 Manthes",0.51,"Vente","Maison Individuelle"
"TROIS_CL_DPE","VERSION_2012","2013-04-23",118.4,"C",27.7,"D",2008,106,49.173853,1.354522,"La Maison Rouge 27940 Le Val d'Hazey",0.26,"Location","Maison Individuelle"
"Méthode 3CL","3CL-DPE, version 1.3","2013-04-26",262,"E",14,"C",1997,101,48.533711,1.6501689999999998,"8 Rue du Bout du Coudray 28320 Bailleau-Armenonville",0.94,"Vente","Maison Individuelle"
"TROIS_CL_DPE","VERSION_2012","2013-04-30",208,"D",48.67,"E",1966,77.15,48.000161999999996,-4.099582,"8 Rue de Creac H Al Lan 29000 Quimper",0.6,"Vente","Logement"
"Méthode Facture",,"2013-05-06",264,"E",8,"B",1947,64.93,41.917015,8.730966,"3 Rue Prosper Merimee 20000 Ajaccio",0.74,"Vente","Logement"
"3CL - DPE","V2012","2013-05-16",264.46,"E",11.81,"C",1982,28.25,42.707634000000006,9.442439,"Résidence Sainte-lucie 20200 Bastia",0.62,"Location","Logement"
"Méthode Facture",,"2013-04-19",192,"D",56,"F",1947,50.26,43.84939,4.363636,"243 Chemin du Mas du Diable 30000 Nîmes",0.67,"Location","Logement"
"3CL","3CL-DPE, version 1.3","2013-04-09",210,"D",11,"C",1989,58.31,43.559251,1.40593,"1 Rue Antoine de Malras 31100 Toulouse",0.89,"Vente","Logement"
"TROIS_CL_DPE","VERSION_2012","2013-04-19",208.37,"D",10.65,"B",1985,100,41.919987,8.729442,"Residence les Aloes Batiment E 20000 Ajaccio",0.52,"Vente","Maison Individuelle"
"3CL - DPE","V2012","2013-04-09",207.68,"D",48.6,"E",1968,86.94,44.795835,-0.631546,"1 Rue Armand Calmon 33600 Pessac",0.78,"Vente","Logement"
"3CL - DPE","V2012","2013-04-13",140.77,"C",5.51,"A",2008,119,43.662396,3.941756,"7 Avenue Monteroni d'Arbia 34920 Le Crès",0.82,"Vente","Maison Individuelle"
"Méthode 3CL","3CL-DPE, version 1.3","2013-04-15",308,"E",51,"E",1962,64,48.09816,-1.789934,"35 Avenue des Erables 35650 Le Rheu",0.95,"Vente","Maison Individuelle"
"Méthode Facture",,"2013-04-29",153,"D",41,"E",1947,85,46.717811,2.066757,"Le Boiscanteau 36400 La Berthenoux",0.85,"Vente","Maison Individuelle"
"3CL - DPE","V2012","2013-04-16",180.78,"D",44.37,"E",1968,76.29,47.343663,0.661421,"16 Rue Jacques Poirrier 37300 Joué-lès-Tours",0.83,"Vente","Logement"
"Méthode Facture",,"2013-04-22",98,"C",22,"D",1947,58,45.453915,4.771102,"29 Rue Victor Hugo 38370 Les Roches-de-Condrieu",0.94,"Location","Logement"
"Méthode 3CL","3CL-DPE, version 1.3","2013-05-07",322,"E",18,"C",2001,62.4,46.674274,5.528376000000001,"5 Rue Léon et Cécile Mathy 39570 Montmorot",0.56,"Vente","Logement"
"Méthode 3CL","3CL-DPE, version 1.3","2013-04-24",358,"F",4,"A",1948,83,43.979696999999994,-0.22727199999999997,"Route de Labastide 40240 Saint-Justin",0.94,"Vente","Maison Individuelle"
"3CL - DPE","V2012","2013-04-17",296.34,"E",14.4,"C",1985,111.6,47.424793,1.151563,"9 Rue de la Carte 41400 Vallières-les-Grandes",0.81,"Vente","Maison Individuelle"
"Méthode Facture",,"2013-04-25",229,"D",68,"F",1947,100.9,46.033081,4.234478,"Route de Lagresle 42840 Montagny",0.64,"Vente","Maison Individuelle"
"Méthode Facture",,"2013-04-16",0,"N",0,"N",1947,45,44.937526,3.98509,"Route de Meymac 43150 Le Monastier-sur-Gazeille",0.76,"Vente","Logement"
"3CL - DPE","V2012","2013-04-16",213.02,"D",8.69,"B",2004,47.4,47.220261,-1.637269,"7 Rue Suzanne Lenglen 44800 Saint-Herblain",0.82,"Location","Logement"
"Méthode Facture",,"2013-04-18",172,"D",40,"E",1947,287.32,47.779423,1.6306370000000001,"20 Rue Porte Dieu 45190 Beaugency",0.95,"Vente","Maison Individuelle"
"3CL - DPE","V2012","2013-05-08",180.29,"D",41.4,"E",1982,201,44.700764,1.414671,"Cote de Souillaguet 46300 Saint-Cirq-Souillaguet",0.57,"Vente","Maison Individuelle"
"Méthode 3CL","3CL-DPE, version 1.3","2013-05-07",149,"C",8,"B",2006,152.28,44.473437,0.23071599999999998,"Roussanes 47200 Birac-sur-Trec",0.94,"Vente","Maison Individuelle"
"Méthode Facture",,"2013-05-18",0,"N",0,"N",1947,75,44.856381,3.4131169999999997,"Fraissinet Langlade 48140 Le Malzieu-Forain",0.94,"Vente","Maison Individuelle"
"TROIS_CL_DPE","VERSION_2012","2013-04-19",104.67,"C",5.47,"A",1985,300,47.461416,-0.598669,"2 Rue du Hameau de la Fontaine 49000 Angers",0.44,"Vente","Maison Individuelle"
"Méthode 3CL","3CL-DPE, version 1.3","2013-04-16",173,"D",40,"E",1948,136,49.115321,-1.075876,"250 Rue des Mimosas 50000 Saint-Lô",0.87,"Vente","Maison Individuelle"
"TROIS_CL_DPE","VERSION_2012","2013-05-03",269.24,"E",15.56,"C",1991,2591,49.242573,4.023546,"145 Rue de Courlancy 51100 Reims",0.46,"Vente","Bâtiment collectif à usage principal d'habitation"
"Méthode Facture",,"2013-05-06",184,"D",5,"A",1947,220,48.637541999999996,4.945704,"22 Avenue de la République 52100 Saint-Dizier",0.9,"Vente","Logement"
"Méthode Facture",,"2013-04-23",131,"C",27,"D",1947,166.14,48.437556,-0.495367,"6 Rue Saint-sauveur 53110 Lassay-les-Châteaux",0.94,"Vente","Maison Individuelle"
"Méthode 3CL","3CL-DPE, version 1.3","2013-04-20",565,"G",30,"D",1948,85.5,48.508726,6.766261999999999,"14 Grande Rue 54120 Reherrey",0.93,"Vente","Maison Individuelle"
"Méthode 3CL","3CL-DPE, version 1.3","2013-04-10",323,"E",17,"C",1975,142,48.759469,5.151033999999999,"10 Rue de la Chenaie 55000 Bar-le-Duc",0.88,"Vente","Maison Individuelle"
"Facture","facture","2013-04-14",0,"N",0,"N",1983,38.97,47.795653,-3.278287,"5 Rue du Cabotage 56700 Hennebont",0.95,"Vente","Bâtiments ou partie de bâtiment à usage principal autre que d'habitation"
"TROIS_CL_DPE","VERSION_2012","2013-04-23",254.5,"E",59.78,"F",1964,143.7,49.025675,6.624157,"12 Rue de l'École 57380 Vahl-lès-Faulquemont",0.81,"Vente","Maison Individuelle"
"3CL - DPE","V2012","2013-05-03",124.03,"C",29.02,"D",2008,140,46.994118,3.0807580000000003,"21 Impasse du Caillat 58180 Marzy",0.84,"Vente","Maison Individuelle"
"Méthode Facture",,"2013-04-16",0,"N",0,"N",1947,65,50.436376,3.5598339999999995,"17 Rue Edouard Vaillant 59970 Fresnes-sur-Escaut",0.95,"Vente","Maison Individuelle"
"Méthode 3CL","3CL-DPE, version 1.3","2013-04-22",329,"E",20,"C",1948,150,49.417873,2.6526970000000003,"380 Rue de la Chaussée 60190 Moyvillers",0.94,"Vente","Maison Individuelle"
"Méthode 3CL","3CL-DPE, version 1.3","2013-04-18",555,"G",27,"D",1948,70,48.560325,-0.66204,"La Fiaudiere Ouest 61330 Torchamp",0.93,"Vente","Maison Individuelle"
"Méthode Facture",,"2013-04-12",260,"E",8,"B",1,75.47,50.421676,2.990944,"Rue de l'Egalité 62950 Noyelles-Godault",0.64,"Neuf","Maison Individuelle"
"3CL - DPE","V2012","2013-04-24",699.89,"G",133.05,"G",1952,96.12,45.430434999999996,3.301614,"ZAC Puy Bayard 63570 Brassac-les-Mines",0.46,"Vente","Maison Individuelle"
"3CL - DPE","V2012","2013-04-19",212.95,"D",9.92,"B",1965,65.65,43.296766999999996,-0.366915,"7 Rue du Marechal Foch 64000 Pau",0.78,"Location","Logement"
"3CL - DPE","V2012","2013-04-16",202.29,"D",41.68,"E",1900,50.66,45.035581,5.209172,"Chemin du Jeu 26730 Hostun",0.29,"Location","Logement"
"3CL - DPE","V2012","2013-04-08",0,"N",0,"N",1900,142,42.552071000000005,2.242372,"Cabrils 66360 Ayguatébia-Talau",0.64,"Vente","Maison Individuelle"
"3CL - DPE","V2012","2013-04-19",293.64,"E",46.81,"E",1974,189.5,48.286072,7.308782000000001,"2 Rue Himmelsleiter 67730 La Vancelle",0.59,"Vente","Maison Individuelle"
"Méthode 3CL","3CL-DPE, version 1.3","2013-04-24",244,"E",13,"C",2006,116,47.970763,7.487133,"14 Rue Pierre Uhry 68600 Dessenheim",0.94,"Vente","Maison Individuelle"
"3CL - DPE","V2012","2013-04-12",166.81,"D",39.03,"E",1960,76.08,45.690778,4.857897,"1 Allée de Nice 69190 Saint-Fons",0.84,"Location","Logement"
"3CL - DPE","V2012","2013-05-03",226.21,"D",10.44,"B",2006,115,47.887674,6.383573999999999,"3 Les Chavannes 70220 Fougerolles-Saint-Valbert",0.57,"Vente","Maison Individuelle"
"Méthode Facture",,"2013-04-22",0,"N",0,"N",1947,147,46.492533,4.281974,"Place de Barnot 71120 Baron",0.93,"Vente","Maison Individuelle"
"TROIS_CL_DPE","VERSION_2012","2013-04-26",640.97,"G",124.5,"G",1980,50,48.010781,0.20445,"Villa de Tesse 72000 Le Mans",0.32,"Vente","Maison Individuelle"
"3CL - DPE","V2012","2013-05-03",347.26,"F",81.26,"G",1850,70,45.707938,5.914516000000001,"34 Che de Saint Simond 73100 Aix-les-Bains",0.69,"Vente","Maison Individuelle"
"Méthode 3CL","3CL-DPE, version 1.3","2013-04-15",430,"F",27,"D",1976,101.45,46.270934000000004,6.261837,"277 d Rte des Trepets 74140 Veigy-Foncenex",0.86,"Vente","Maison Individuelle"
"FACTURE","VERSION_2012","2013-04-14",188.83,"D",6.14,"B",1850,38.9,48.848469,2.374087,"55 Rue Traversière 75012 Paris",0.84,"Vente","Logement"
"Méthode 3CL","3CL-DPE, version 1.3","2013-04-23",400,"F",23,"D",1978,48,50.057682,1.382506,"2 Rue Alexandre Papin 76470 Le Tréport",0.61,"Location","Logement"
"TROIS_CL_DPE","VERSION_2012","2013-04-16",309.98,"E",72.53,"F",1955,68.5,48.819687,3.096135,"9 Rue Georges Clémenceau 77120 Coulommiers",0.82,"Vente","Maison Individuelle"
"FACTURE","VERSION_2012","2013-04-18",0,"A",0,"A",1927,134.1,48.791002,1.599101,"80 Rue de Paris 78550 Houdan",0.74,"Vente","Maison Individuelle"
"3CL - DPE","V2012","2013-04-12",72.22,"B",19.79,"C",1947,58.5,46.869764,-0.393696,"5 Gare de Noirterre 79300 Bressuire",0.36,"Vente","Maison Individuelle"
"Méthode Facture",,"2013-04-10",0,"N",0,"N",1947,36,49.896665999999996,2.285841,"27 Passage Couvreur 80000 Amiens",0.96,"Vente","Maison Individuelle"
"Méthode 3CL","3CL-DPE, version 1.3","2013-05-07",264,"E",15,"C",2207,123.66,43.917004,2.262075,"11 Chemin de Las Moussoulieyros 81990 Cambon",0.76,"Vente","Maison Individuelle"
"Méthode 3CL","3CL-DPE, version 1.3","2013-05-15",233,"E",11,"C",2006,90,43.837398,1.288564,"19 Rue des Peupliers 82170 Grisolles",0.95,"Vente","Maison Individuelle"
"Facture","facture","2013-04-10",0,"N",0,"N",1948,120,43.582296,6.275228,"Route de Salernes 83690 Villecroze",0.51,"Vente","Maison Individuelle"
"Méthode 3CL","3CL-DPE, version 1.3","2013-04-18",341,"F",73,"F",1948,56.39,43.884971,5.446307,"Les Auberts 84400 Saignon",0.94,"Vente","Maison Individuelle"
"Méthode 3CL","3CL-DPE, version 1.3","2013-05-02",241,"E",12,"C",1978,74,46.526133,-0.8594139999999999,"73 Rue de Fontenay 85570 Marsais-Sainte-Radégonde",0.72,"Vente","Maison Individuelle"
"Méthode 3CL","3CL-DPE, version 1.3","2013-04-16",321,"E",75,"F",1948,43,46.420962,0.8696459999999999,"58 bis Avenue du Général de Gaulle 86500 Montmorillon",0.95,"Location","Logement"
"3CL - DPE","V2012","2013-04-16",246.19,"E",12.19,"C",1986,165,45.895285,0.893884,"1 Rue Jean Cocteau 87200 Saint-Junien",0.81,"Vente","Maison Individuelle"
"Méthode Facture",,"2013-04-15",0,"N",0,"N",1947,89,48.369402,6.957634,"265 Rue de Fontenelle 88420 Moyenmoutier",0.69,"Vente","Maison Individuelle"
"Méthode Facture",,"2013-04-26",167,"C",5,"A",1,159.5,47.693287,3.9898910000000005,"16 Route d'Auxerre 89310 Noyers",0.78,"Vente","Bâtiments ou partie de bâtiment à usage principal autre que d'habitation"
"Méthode 3CL","3CL-DPE, version 1.3","2013-04-17",131,"C",30,"D",2010,85.61,47.62811,6.924019,"1 Impasse de la Mairie 90340 Chèvremont",0.94,"Location","Logement"
"Méthode 3CL","3CL-DPE, version 1.3","2013-04-18",348,"F",18,"C",2006,40.74,48.687442,2.354444,"3 Avenue des Iris 91600 Savigny-sur-Orge",0.95,"Location","Logement"
"Méthode 3CL","3CL-DPE, version 1.3","2013-04-22",349,"F",21,"D",1989,97,48.773324,2.25732,"Voie de l'Orme Mort 92350 Le Plessis-Robinson",0.54,"Location","Logement"
"FACTURE","VERSION_2012","2013-04-16",238.69,"E",55.85,"E",1930,81,48.959346000000004,2.351943,"40 Rue Gabriel Péri 93430 Villetaneuse",0.81,"Vente","Maison Individuelle"
"Méthode Facture",,"2013-04-24",163,"D",38,"E",1947,174,48.840152,2.4694700000000003,"70 Boulevard Gambetta 94130 Nogent-sur-Marne",0.95,"Vente","Maison Individuelle"
"Méthode Facture",,"2013-04-13",155,"D",5,"A",1947,168,49.033095,2.464116,"21 Rue Ampere 95190 Goussainville",0.95,"Vente","Maison Individuelle"
"Méthode 3CL","3CL-DPE, version 1.3","2013-04-18",258,"E",15,"C",1989,98,46.110510999999995,4.968064,"11 Impasse du Lac 01400 Châtillon-sur-Chalaronne",0.72,"Location","Maison Individuelle"
"Méthode Facture",,"2013-04-30",172,"D",40,"E",1947,140.16,49.903399,3.628914,"350 Rue Sadi Carnot 02120 Guise",0.74,"Location","Maison Individuelle"
"Méthode Facture",,"2013-05-02",422,"F",77,"F",1947,72.7,46.551459,3.349076,"24 Rue Jenner 03400 Yzeure",0.95,"Vente","Logement"
"3CL - DPE","V2012","2013-05-18",211,"D",12,"C",2006,121,43.822629,5.858897,"75 Les Chabrands 04210 Valensole",0.83,"Vente","Maison Individuelle"
"Méthode Facture",,"2013-05-03",0,"N",0,"N",1,44,44.7612,6.6127,"La Roche-de-Rame",0.76,"Vente","Bâtiments ou partie de bâtiment à usage principal autre que d'habitation"
"Méthode 3CL","3CL-DPE, version 1.3","2013-04-15",286,"E",45,"E",1948,50.71,43.720401,7.26307,"6 Avenue Henry Dunant 06100 Nice",0.61,"Location","Logement"
"TROIS_CL_DPE","VERSION_2012","2013-04-22",290.44,"E",37.01,"E",1990,105,44.568940999999995,4.446495,"Chemin de la Cavalle 07170 Lavilledieu",0.51,"Vente","Maison Individuelle"
"FACTURE","VERSION_2012","2013-05-06",451.16,"G",10.1,"B",1900,71,49.758117999999996,4.712404,"4 Boulevard de Chatillon 08000 Charleville-Mézières",0.85,"Vente","Maison Individuelle"
"Méthode Facture",,"2013-05-14",153,"D",35,"D",1947,72,43.27557,1.346388,"36 Rue Francois Verdier 09210 Lézat-sur-Lèze",0.94,"Vente","Logement"
"3CL - DPE","2012","2013-05-06",442.95,"F",103.65,"G",1949,126,48.295660999999996,4.047286,"73 Rue Louis Blanc 10300 Sainte-Savine",0.81,"Vente","Maison Individuelle"
"Méthode 3CL","3CL-DPE, version 1.3","2013-04-22",158,"D",7,"B",2006,40,43.186777,2.99823,"Quai d'Alsace 11100 Narbonne",0.54,"Vente","Logement"
"Méthode Facture",,"2013-05-14",69,"B",4,"A",1947,60,43.7198,2.9518,"Arnac-sur-Dourdou",0.66,"Vente","Maison Individuelle"
"Méthode 3CL","3CL-DPE, version 1.3","2013-04-16",433,"F",24,"D",1948,24.98,43.305292,5.39927,"78 Avenue des Chartreux 13004 Marseille",0.81,"Location","Logement"
"Méthode 3CL","3CL-DPE, version 1.3","2013-04-19",172,"D",40,"E",1983,104,49.32868,-0.442226,"26 Rue des Petits Champs 14470 Courseulles-sur-Mer",0.95,"Vente","Maison Individuelle"
"TROIS_CL_DPE","VERSION_2012","2013-05-27",1020.86,"G",63.9,"F",1996,31.5,44.839529,2.993065,"Le Moulin Marseillais 15110 Chaudes-Aigues",0.57,"Vente","Maison Individuelle"
"FACTURE - DPE","V2012","2013-04-09",30.38,"A",7.11,"B",2006,87.5,45.63127,0.166008,"Hameau des Rossignols 16000 Angoulême",0.76,"Neuf","Maison Individuelle"
"3CL - DPE","V2012","2013-04-11",0,"N",0,"N",1900,25.6,46.162162,-1.14895,"4 Rue des Cloutiers 17000 La Rochelle",0.86,"Vente","Logement"
"Méthode 3CL","3CL-DPE, version 1.3","2013-05-02",304,"E",17,"C",1978,118.2,47.00873,2.35963,"16 Rue du Paradis 18570 Trouy",0.94,"Vente","Maison Individuelle"
"Méthode 3CL","3CL-DPE, version 1.3","2013-05-22",246,"E",12,"C",2001,34,45.156948,1.552482,"39 Rue Descartes 19100 Brive-la-Gaillarde",0.52,"Location","Logement"
"Méthode Facture",,"2013-04-29",236,"E",36,"E",1947,82.7,47.309413,5.042121,"43 Rue des Lilas 21000 Dijon",0.96,"Vente","Maison Individuelle"
"Méthode 3CL","3CL-DPE, version 1.3","2013-05-03",130,"C",30,"D",1989,77.4,48.496249,-2.79555,"5 Rue du Muguet 22440 Ploufragan",0.95,"Vente","Maison Individuelle"
"FACTURE","VERSION_2012","2013-05-02",0,"A",0,"A",1900,135.5,46.221265,1.8059939999999999,"Chardet 23000 Saint-Sulpice-le-Guérétois",0.65,"Vente","Maison Individuelle"
"FACTURE - DPE","V2012","2013-05-02",0,"N",0,"N",1948,330,45.328875,0.582769,"Route de St Julien 24310 Bourdeilles",0.53,"Vente","Maison Individuelle"
"Méthode 3CL","3CL-DPE, version 1.3","2013-05-04",301,"E",15,"C",1978,131.8,47.483708,6.7291929999999995,"17 Rue des Fleurs 25550 Bavans",0.94,"Vente","Maison Individuelle"
"FACTURE","VERSION_2012","2013-04-22",0,"A",0,"A",1800,43,44.557977,4.749046,"15 Rue Raymond Daujat 26200 Montélimar",0.62,"Location","Logement"
"TROIS_CL_DPE","VERSION_2012","2013-04-23",263.05,"E",3.58,"A",1967,110,49.394961,1.467596,"9 Le Val Soret 27480 Lyons-la-Forêt",0.59,"Vente","Maison Individuelle"
"Méthode 3CL","3CL-DPE, version 1.3","2013-04-29",256,"E",12,"C",1989,120,48.654084000000005,1.5074370000000001,"80 Rue des Tuileries 28210 Chaudon",0.91,"Vente","Maison Individuelle"
"Méthode 3CL","3CL-DPE, version 1.3","2013-05-02",187,"D",8,"B",2006,90,48.393195,-4.532394999999999,"60 Rue Agatha Christie 29200 Brest",0.96,"Vente","Maison Individuelle"
"Méthode 3CL","3CL-DPE, version 1.3","2013-05-03",145,"C",6,"B",2004,166.22,41.977470000000004,8.797655,"Chioso Communo 20167 Afa",0.51,"Vente","Maison Individuelle"
"3CL - DPE","V2012","2013-05-15",436.93,"F",25.72,"D",1950,74,42.366234000000006,9.497708,"Fano 20230 San-Nicolao",0.47,"Vente","Logement"
"Méthode 3CL","3CL-DPE, version 1.3","2013-04-19",630,"G",37,"E",1948,27.24,43.51112,4.1328510000000005,"Route des Marines 30240 Le Grau-du-Roi",0.48,"Vente","Logement"
"3CL","3CL-DPE, version 1.3","2013-04-08",177,"D",9,"B",2001,70.66,43.633340000000004,1.43434,"6 Rue Paul Verlaine 31200 Toulouse",0.97,"Vente","Logement"
"TROIS_CL_DPE","VERSION_2012","2013-04-19",208.37,"D",10.65,"B",1985,100,41.919987,8.729442,"Residence les Aloes Batiment E 20000 Ajaccio",0.52,"Vente","Maison Individuelle"
"3CL","3CL-DPE, version 1.3","2013-04-12",139,"C",32,"D",1948,123.76,44.751222,-0.637876,"15 Allée des Pins 33610 Canéjan",0.95,"Vente","Maison Individuelle"
"3CL - DPE","V2012","2013-04-15",315.86,"E",15.33,"C",1988,102,43.560845,3.951024,"5 Place Jean Moulin 34470 Pérols",0.77,"Vente","Maison Individuelle"
"Méthode 3CL","3CL-DPE, version 1.3","2013-04-16",150,"C",6,"B",2008,55,48.369642,-1.87435,"3 Rue Nationale 35190 Saint-Domineuc",0.94,"Vente","Logement"
"Méthode 3CL","3CL-DPE, version 1.3","2013-04-30",241,"E",12,"C",1978,105.6,46.894709000000006,1.6391950000000002,"8 Lotissement les Ormes 36110 Vineuil",0.56,"Vente","Maison Individuelle"
"Méthode 3CL","3CL-DPE, version 1.3","2013-04-22",329,"E",98,"G",1948,82,47.309742,0.199206,"Les Clos Noyers 37140 Benais",0.94,"Vente","Maison Individuelle"
"Méthode 3CL","3CL-DPE, version 1.3","2013-04-22",183,"D",41,"E",1948,130,45.564659000000006,4.824552,"220 Chemin du Vieux Château 38200 Seyssuel",0.94,"Vente","Maison Individuelle"
"3CL - DPE","V2012","2013-05-06",380.64,"F",23.73,"D",1980,120,47.084371999999995,5.473147,"29 Rue Prince de Condé 39100 Dole",0.74,"Vente","Maison Individuelle"
